name,company_number,address_line1,locality,postcode,sic_codes,search_city,search_sic,latitude,longitude
FS PLUS LIMITED,14815199,3000 Aviator Way Manchester Business Park,Manchester,M22 5TG,69201,Manchester,69201,53.367321,-2.265103
BLOCKCHAIN CORE ACCOUNTANTS LTD,13378689,45 Gorse Avenue,Manchester,M32 0UE,"69201, 69202",Manchester,69201,53.453313,-2.293077
WARENTS FEINGOLD & CO LIMITED,04695277,349 Bury Old Rd,Manchester,M25 1PY,69201,Manchester,69201,53.534993,-2.26885
LEVANTE ASESORES LIMITED,12257445,Piccadilly Business Centre Unit C Aldow Enterprise Park,Manchester,M12 6AE,69201,Manchester,69201,53.47621,-2.219903
MUK PROFESSIONALS LIMITED,08036621,116-118 Oldham Road,Manchester,M4 6AG,"69201, 69202",Manchester,69201,53.486595,-2.227642
J A GUEST (NW) LTD,12013740,91 Princess Street,Manchester,M1 4HT,69201,Manchester,69201,53.477977,-2.240599
SIGMEZ ACCOUNTANTS LTD,08206899,192 Varley Street,Manchester,M40 7EJ,69201,Manchester,69201,53.488577,-2.210457
INTEGRAL EQUALITY LTD,08053910,9 Gambleside Close,Manchester,M28 7XU,69201,Manchester,69201,53.511928,-2.408687
AMMAR TABASSUM LIMITED,09341815,243 Blackley New Road,Manchester,M9 8FS,69201,Manchester,69201,53.524803,-2.242313
M&M ACCOUNTANCY AND BUSINESS ADVICE LIMITED,12750483,142 Rosebery Street,Manchester,M14 4UX,"69201, 70221",Manchester,69201,53.452679,-2.242912
XEINADIN CORPORATE RECOVERY LIMITED,11415156,Xeinadin Manchester,Manchester,M2 3BD,69201,Manchester,69201,53.475731,-2.244353
MK ACCOUNTANCY LTD,09774767,Suite 3.17 Universal Square,Manchester,M12 6JH,69201,Manchester,69201,53.470728,-2.214271
JB DISCOUNTS LIMITED,08456137,239 Bury New Road,Manchester,M45 8QP,69201,Manchester,69201,53.552714,-2.297128
MANCHESTER ACCOUNTING & TAX CO. LTD,12014623,175 St James's Tower,Manchester,M1 4DZ,"69201, 69202",Manchester,69201,53.479355,-2.239326
CLEARCUT ACCOUNTING OUTSOURCING LTD,14112416,Parkway 5 Suite 2 Parkway Business Centre,Manchester,M14 7HR,"69201, 69202, 69203",Manchester,69201,53.44852,-2.245915
EDEN ASSOCIATES  EST.1985 LTD,11017881,154 Northmoor Road,Manchester,M12 5RS,"69201, 69202, 85422",Manchester,69201,53.455314,-2.192854
ZH ACCOUNTANTS LTD,15764034,189 Elizabeth Street,Manchester,M8 8BW,69201,Manchester,69201,53.501731,-2.2461
SEY LTD,06613530,11 Manson Avenue,Manchester,M15 4FT,69201,Manchester,69201,53.469425,-2.264068
JJYTB LIMITED,08482716,12 Danesway,Manchester,M25 0FS,69201,Manchester,69201,53.520204,-2.258017
M. SALIM & CO LTD,11955573,51 Lord Street,Manchester,M3 1HE,69201,Manchester,69201,53.491834,-2.241989
ACHIEVE SERVICES LIMITED,14306412,69 Hamilton Road,Manchester,M13 0PD,"69201, 82990, 85600",Manchester,69201,53.455408,-2.200942
BLOOMFIELD'S ACCOUNTANT'S LTD,10754329,76 Factory Street West,Manchester,M46 0EF,"69201, 69202, 69203",Manchester,69201,53.524748,-2.498214
OPTIACCOUNTS LTD,11296501,29 Spinners Drive,Manchester,M28 3UB,"69201, 69202, 69203",Manchester,69201,53.524005,-2.379887
A. J. RYDER & CO LTD,04758722,120 Ashton Road,Manchester,M34 3JE,"69201, 69202",Manchester,69201,53.459953,-2.115523
CHAMPION HOLDINGS LIMITED,03792073,1 Worsley Court,Manchester,M28 3NJ,69201,Manchester,69201,53.524208,-2.400162
INQUESTA GROUP LIMITED,08106365,St John's Terrace,Manchester,M26 1LS,69201,Manchester,69201,53.556897,-2.319981
TWA MANAGEMENT LIMITED,08655396,1a Grange Lane,Manchester,M20 6RW,69201,Manchester,69201,53.415382,-2.230633
FOREST ACCOUNTANTS LTD,06959676,Hamilton House,Manchester,M8 8EL,69201,Manchester,69201,53.493598,-2.249731
ACCOUNTANCY & TAXATION SOLUTIONS LIMITED,05702538,26 Northleigh Road,Lancashire,M16 0EQ,"69201, 69202",Manchester,69201,53.452945,-2.277639
COPA ACCOUNTING LTD,13579975,Gateway House,Manchester,M22 5WY,69201,Manchester,69201,53.364776,-2.240352
FREEDOM CONSULTATION LTD,14369738,5 Kelvin Street,Manchester,M4 1ET,"69201, 69203, 74909, 82990",Manchester,69201,53.483692,-2.236909
ACCOUNTING SOLUTIONS (MCR) LTD,12740352,10 Milton Road,Manchester,M32 0RD,"69201, 69202, 69203, 82990",Manchester,69201,53.453976,-2.297343
SAPHI ASSOCIATES LIMITED,08479883,Mansion House,Altrincham,WA14 4RW,69201,Manchester,69201,53.397888,-2.353017
ELTAL LIMITED,08482903,1 Ravens Close,Manchester,M25 0FU,69201,Manchester,69201,53.519083,-2.256894
BARCLAY ACCOUNTING SERVICES LIMITED,12176574,"C/O E M Accountancy Ltd Office 4, Trafalgar House",Altrincham,WA14 1NU,69201,Manchester,69201,53.396816,-2.350918
RUBINSTEIN LIMITED,09693554,69 Butterstile Close,Manchester,M25 9PH,69201,Manchester,69201,53.519301,-2.2878
UPPER RIVER ACCOUNTANTS LTD,10674010,2 Oakleigh Avenue,Manchester,M19 2WP,69201,Manchester,69201,53.43533,-2.199582
TST&I LIMITED,15747263,"Unit C, Aldow Enterprise Park",Manchester,M12 6AE,"69201, 69203, 70229, 82990",Manchester,69201,53.47621,-2.219903
TAXPRO ACCOUNTANCY LTD,10913924,"Second Floor, 2 Railway Road",Manchester,M41 0XL,69201,Manchester,69201,53.448856,-2.352325
EAZY ACCOUNTING LTD,10785809,"Office 2, First Floor Offices, 2-4 Nelrose",Manchester,M20 2LT,69201,Manchester,69201,53.429019,-2.25253
CUSTOM PROCESS ENGINEERS LTD,06255126,15 Leafield,Manchester,M29 8QE,69201,Manchester,69201,53.517122,-2.446999
EAC ACCOUNTANCY ASSIST LIMITED,04687962,Wilsons Park,Manchester,M40 8WN,"69201, 69202",Manchester,69201,53.499615,-2.205552
ON & UP CONSULTING LIMITED,14932136,115 Manley Road,Manchester,M16 8WE,69201,Manchester,69201,53.446759,-2.262693
KAVALLA LIMITED,13438763,Reedham House,Manchester,M3 2PJ,69201,Manchester,69201,53.48185,-2.249828
INCOME TO IMPACT ACCOUNTANCY LTD,14865877,3 St Anne's Place,Manchester,M34 5JB,"69201, 69202",Manchester,69201,53.472339,-2.147962
HOWARD PARK LIMITED,07276559,106-108 Reddish Lane,Manchester,M18 7JL,69201,Manchester,69201,53.455436,-2.159182
BRAEHEAD FINANCE LIMITED,06902727,C/O Social Money St Johns House,Manchester,WA14 1JY,69201,Manchester,69201,53.390356,-2.346819
TOPPING PARTNERSHIP (ACCOUNTANTS) LIMITED,11359154,Incom House Waterside,Manchester,M17 1WD,69201,Manchester,69201,53.466642,-2.293319
COTAX PROFESSIONALS LIMITED,12108136,Regus 4th Floor Centenary House,Manchester,M50 1RF,69201,Manchester,69201,53.481737,-2.32677
ORACLE ACCOUNTANTS LIMITED,04919964,"3 Arundale Avenue, Chorlton",Lancashire,M16 8LS,69201,Manchester,69201,53.444044,-2.254712
BASS ACCOUNTANTS LIMITED,13613260,67 Windsor Road,Manchester,M25 0DB,69201,Manchester,69201,53.524987,-2.253295
FISCALFRAME ACCOUNTING SERVICES LTD,15803904,Bartle House,Manchester,M2 3WQ,69201,Manchester,69201,53.476469,-2.243906
AMBIENT ACCOUNTING LTD,11072379,Suite 6 Ellesmere House 1 Pennington Street,Manchester,M28 3LR,"69201, 69202",Manchester,69201,53.522935,-2.391115
AAA & CO ACCOUNTANTS LTD,10798769,39 Aspinall Street,Manchester,M14 5UD,"69201, 69202, 69203",Manchester,69201,53.454709,-2.225214
ACCOUNTANCY SERVICES 4 BUSINESS LTD,07703458,198 Liverpool Road,Manchester,M44 5DB,69201,Manchester,69201,53.423731,-2.439487
COMMUNITY ACCOUNTANCY SERVICE LIMITED,02570992,"The Grange, Pilgrim Drive",Manchester,M11 3TQ,69201,Manchester,69201,53.479687,-2.200664
CHADWICK & COMPANY (MANCHESTER) LIMITED,04351426,"Capital House, 272 Manchester",Manchester,M43 6PW,69201,Manchester,69201,53.480214,-2.154484
HOLISTIC ACCOUNTING SOLUTIONS LIMITED,07692190,19 Ludlow Avenue,Manchester,M45 6TD,"69201, 69202",Manchester,69201,53.540039,-2.279264
VORA ASSOCIATES LTD,08226203,30 Pasturefield Road,Manchester,M22 5JU,69201,Manchester,69201,53.374198,-2.243667
ABACUS BUSINESS SERVICES LIMITED,04390147,45 Highmeadow,Manchester,M26 1YN,69201,Manchester,69201,53.550151,-2.335098
CGY GROUP LTD.,14975393,Enterprise House,Oldham,OL9 6HZ,"63110, 69201, 70221, 71129",Manchester,69201,53.537942,-2.128092
J. AHMED & CO LTD,07708893,68 Seymour Grove,Manchester,M16 0LN,"69201, 69202",Manchester,69201,53.459403,-2.27607
RAINY DAY PRODUCTIONS LIMITED,10890044,117 Rufford Drive Rufford Drive,Manchester,M45 8PD,"59112, 69201",Manchester,69201,53.556771,-2.288341
CALIBRA ACCOUNTANCY LTD,14996573,Unit C,Manchester,M12 6AE,69201,Manchester,69201,53.47621,-2.219903
FAIR VIEW ACCOUNTING & TAX SERVICES LTD,12054568,Initial Business Centre,Manchester,M40 8WN,"69201, 69202",Manchester,69201,53.499615,-2.205552
KBM ACCOUNTING SERVICES LIMITED,11042733,3 Denton Terrace 34 Denton Road,Manchester,M34 5AY,69201,Manchester,69201,53.466047,-2.116338
BURAQ ACCOUNTING FIRM LTD,09818218,"1st Floor, 100 Waterloo Road, Cheetham Hill",Manchester,M8 8AW,69201,Manchester,69201,53.497151,-2.248456
A PHILLIPS & CO. LTD,03272542,C/O A Phillips & Co,Newton Heath,M40 8WN,69201,Manchester,69201,53.499615,-2.205552
UTILITY REFUND LTD,14982929,12 Wexford Walk,Manchester,M22 5GN,69201,Manchester,69201,53.376772,-2.255301
SEDULO LIVERPOOL LIMITED,11458829,62-66 Deansgate,Manchester,M3 2EN,69201,Manchester,69201,53.483016,-2.246821
MONAP LIMITED,11492397,14 Orient Street,Salford,M7 4TB,"46450, 69201",Manchester,69201,53.507702,-2.249181
HAW MCR LTD,15905523,74 Scholes Lane,Manchester,M25 0AQ,69201,Manchester,69201,53.524585,-2.268724
QZ ACCOUNTANTS LIMITED,11697023,145a Dickenson Road,Manchester,M14 5HZ,69201,Manchester,69201,53.453733,-2.213192
ABC ACCOUNTING & CONSULTANCY LIMITED,13216736,28 Meadowgate,Manchester,M28 2RB,69201,Manchester,69201,53.512428,-2.382664
AKS ACCOUNTANCY SERVICES MANCHESTER LIMITED,11779293,Flat 3 19 Westminster Road,Manchester,M30 9EB,69201,Manchester,69201,53.491125,-2.338176
HB ACCOUNTANCY  PLUS  LIMITED,05298943,2 Conway Close,Manchester,M16 0GJ,69201,Manchester,69201,53.451942,-2.279786
CHESHIRE BOOK-KEEPING & ACCOUNTANCY SERVICES LTD,11263951,C/O Tariq Khan & Co 60 Birch Hall Lane,Manchester,M13 0XL,"69201, 69202",Manchester,69201,53.453502,-2.206851
HALLIDAY FOORD LIMITED,09061332,17 Victoria Road Northenden,Manchester,M22 4JP,69201,Manchester,69201,53.405847,-2.260757
BROADTHUNDER ACCOUNTING LIMITED,07770313,164 Walkden Road,Manchester,M28 7DP,69201,Manchester,69201,53.519034,-2.396418
LANCASHIRE BUSINESS SERVICES LIMITED,10898342,28-30 Wilbraham Road,Manchester,M14 7DW,69201,Manchester,69201,53.443728,-2.228558
PARKERS ACCOUNTANTS LIMITED,09912678,28-30 Wilbraham Road,Manchester,M14 7DW,69201,Manchester,69201,53.443728,-2.228558
A J ACCOUNTING SERVICES LIMITED,09298710,198 Liverpool Road,Manchester,M44 5DB,69201,Manchester,69201,53.423731,-2.439487
KNOX ACCOUNTANTS LIMITED,09582896,413 Barlow Moor Road,Manchester,M21 7FZ,69201,Manchester,69201,53.433175,-2.271746
SAM & CO ACCOUNTANTS MCR LTD,11511002,10 Pennington Street,Manchester,M12 4QJ,"69201, 69202, 69203",Manchester,69201,53.449174,-2.193293
ACORN CORPORATE SOLUTIONS LTD,14529714,Acorn Business Centre,Manchester,M12 6AE,"68209, 69201, 82110",Manchester,69201,53.47621,-2.219903
I MATHER AND CO LTD,10459642,"Unit 154, 19 Lever Street I Mather And Co Ltd",Manchester,M1 1AN,69201,Manchester,69201,53.481943,-2.235152
CAROLINE BOARDMAN CONSULTING LIMITED,11554381,Office 7 The Old Police House,Urmston,M41 9JQ,69201,Manchester,69201,53.446822,-2.353031
CADISHEAD ACCOUNTANCY SERVICES LIMITED,04332699,Britannic House,Manchester,M44 5XD,"69201, 69202",Manchester,69201,53.432962,-2.432297
H ACCOUNTANCY GROUP LTD,13737009,Clemency Business Centre,Manchester,M40 0JB,69201,Manchester,69201,53.523895,-2.169831
SMART LEGAL COSTS SOLUTIONS LTD,10998838,Unit 12 First Floor Atrium House,Bury,BL9 9SW,"69109, 69201",Manchester,69201,53.570614,-2.295321
AWH SOLUTIONS LIMITED,12485744,2 Trust Road,Manchester,M18 7PJ,69201,Manchester,69201,53.454682,-2.177491
CSAC LIMITED,08690522,86 Ravenscar Crescent,Wythenshawe,M22 0JA,"69201, 82110",Manchester,69201,53.367838,-2.258975
M.BOHEME LIMITED,11264453,Mansion House,Altrincham,WA14 4RW,69201,Manchester,69201,53.397888,-2.353017
ECLECTIC FINANCIALS LIMITED,15968142,Piccadilly Business Centre Unit C Aldow Enterprise Park,Manchester,M12 6AE,"69201, 69202, 69203, 78300",Manchester,69201,53.47621,-2.219903
SEDULO BIRMINGHAM LIMITED,15510602,62-66 Deansgate,Manchester,M3 2EN,69201,Manchester,69201,53.483016,-2.246821
E M ACCOUNTANCY LIMITED,11057729,"E M Accountancy Ltd Office 4, Trafalgar House",Altrincham,WA14 1NU,69201,Manchester,69201,53.396816,-2.350918
MONTON GREEN ACCOUNTANCY LTD,10730599,5 Hawthorn Avenue,Manchester,M30 9NE,"69201, 69202",Manchester,69201,53.491437,-2.348352
ACCOUNTING SERVICES (NEW FOREST) LIMITED,04834196,Braemar Manchester Road,Lymington,SO41 6AP,69201,Manchester,69201,50.788662,-1.60316
SEDULO GROUP LIMITED,06878216,62 -66 Deansgate,Manchester,M3 2EN,69201,Manchester,69201,53.483016,-2.246821
BMG ACCOUNTANCY LIMITED,05955050,318a Palatine Road,Manchester,M22 4FW,"69201, 69202, 69203",Manchester,69201,53.410035,-2.25663
BON TRESOR CONSULTING LIMITED,09847956,23 Athletes Way,Manchester,M11 3NE,"69201, 70229",Manchester,69201,53.477796,-2.207571
SEDULO LONDON LIMITED,11009183,62 - 66 Deansgate,Manchester,M3 2EN,69201,Manchester,69201,53.483016,-2.246821
NABAILE YOUNG UK LTD,07058673,334 Slade Lane,Manchester,M19 2BL,69201,Manchester,69201,53.442692,-2.199587
PA ACCOUNTANCY LIMITED,08730267,3 Stobart Avenue,Manchester,M25 0AJ,69201,Manchester,69201,53.522617,-2.272693
CAM ACCOUNTING LIMITED,07619633,548 Burnage Lane,Manchester,M19 1LA,"69201, 69202, 69203",Manchester,69201,53.423535,-2.2066
ABACUS ACCOUNTING AND MANAGEMENT SOLUTIONS LTD,08150885,86 North Street,Manchester,M8 8RA,69201,Manchester,69201,53.494615,-2.235629
CORBAR ACCOUNTING LTD,15725267,Moss House Farm,Buxton,SK17 6SS,69201,Manchester,69201,53.266762,-1.932776
INTEGRA CONSULTANCY LIMITED,09684221,43 Manchester Street,London,W1U 7LP,"69201, 69203",Manchester,69201,51.518702,-0.154262
SIMPLE ACCOUNTING (NW) LIMITED,07340084,"Office 10, Swan Buildings",Manchester,M4 5JW,"69201, 69202",Manchester,69201,53.485461,-2.233302
EL ROI ACCOUNTING SERVICES LTD,12784270,17 Tong Head Avenue,Bolton,BL1 8SZ,69201,Manchester,69201,53.60153,-2.414901
SEDULO CONSULTANCY LIMITED,11458808,62-66 Deansgate,Manchester,M3 2EN,"69201, 69203",Manchester,69201,53.483016,-2.246821
C M EDWARDS LTD,10496412,Apartment 7.33 6 Leftbank,Manchester,M3 3AE,69201,Manchester,69201,53.480987,-2.253982
YELLIT LIMITED,10865401,5 Uplands,Manchester,M24 1EA,69201,Manchester,69201,53.542073,-2.196387
OMID & CO LTD,09666164,Suite 48 Flexspace Manchester Road,Bolton,BL3 2NZ,69201,Manchester,69201,53.563524,-2.410527
G A HARRIS & CO LIMITED,04478782,Brulimar House Jubilee Road,Manchester,M24 2LX,69201,Manchester,69201,53.55452,-2.186256
MUJAHID & CO ACCOUNTANTS LTD,14195612,Victoria House 37 Anson Road,Manchester,M14 5DA,"69201, 69202, 69203",Manchester,69201,53.455575,-2.213833
B&N BOOKKEEPING LIMITED,06752570,11 Clevedon Avenue,Manchester,M41 9PR,"69201, 69202",Manchester,69201,53.449295,-2.330903
GRAMOSOL LIMITED,08695449,53 Horse Chestnut Drive,Manchester,M9 7FU,"69201, 69203, 85410, 96090",Manchester,69201,53.52404,-2.203197
HILKO CONSULTING LIMITED,09600319,37 Morville Road,Manchester,M21 0TR,"62020, 62090, 69201, 69202",Manchester,69201,53.446432,-2.264076
ADROIT CONSULTANCY LIMITED,12854222,315 Dickenson Road,Manchester,M13 0NR,"69201, 69203, 70229",Manchester,69201,53.455727,-2.203895
BEESLEY CORPORATE RECOVERY (CHESTERFIELD) LIMITED,09669985,Suite 4c Manchester International Office Centre,Wythenshawe,M22 5WB,69201,Manchester,69201,53.364067,-2.239702
HORSFIELDS LTD,05054945,Belgrave Place,Bury,BL9 0ED,69201,Manchester,69201,53.591294,-2.300012
BYAS CONSULTING LIMITED,11082553,"41,Circular Road Prestwich",Manchester,M25 9NR,"69201, 69202, 69203, 70221",Manchester,69201,53.518809,-2.275248
TAX EXPERT ACCOUNTANT LIMITED,11260546,2a Esmond Road,Manchester,M8 9NA,"69201, 69202, 69203",Manchester,69201,53.50835,-2.239987
PROSURE ASSOCIATES LIMITED,13942165,Office 1 916 Stockport Road,Manchester,M19 3AB,69201,Manchester,69201,53.444538,-2.191917
BAN-COLE ACCOUNTANTS LTD,16073414,1 Salcombe Road,Manchester,M11 1DQ,"69201, 69203",Manchester,69201,53.477033,-2.166797
SCULLARD (ALDERLEY EDGE) LIMITED,15277640,197-201 Manchester Road,Altrincham,WA14 5NU,69201,Manchester,69201,53.401539,-2.352476
WILDS LTD,03666585,Lancaster House,Radcliffe,M26 2JW,"69201, 69203",Manchester,69201,53.561964,-2.327734
THE TAX ROOM LIMITED,10528636,Lancaster House 70-76 Blackburn Street,Manchester,M26 2JW,69201,Manchester,69201,53.561964,-2.327734
SRA ACCOUNTANTS LIMITED,12946105,14 The Downs,Cheadle,SK8 1JL,"69201, 69202, 69203",Manchester,69201,53.383399,-2.218012
QUALITAX LIMITED,10775896,"Office 6, 163 Kingsway",Manchester,M19 2ND,"69201, 70210, 78109, 94990",Manchester,69201,53.435931,-2.206088
PRESTIGE ASSOCIATES GROUP LTD,13599218,1st Floor 184 Cheetham Hill Road,Manchester,M8 8LQ,"69201, 69202",Manchester,69201,53.494969,-2.238419
FARO FINANCE LTD,14700709,481 Chester Road,Manchester,M16 9HF,"69201, 69202, 69203, 70221",Manchester,69201,53.464144,-2.27015
LIANCO LIMITED,05249936,26 Oregon Close,Manchester,M13 9SA,69201,Manchester,69201,53.467141,-2.224451
CH ACCOUNTANCY SERVICES (HIGH PEAK) LIMITED,08837579,6 Manchester Road,Buxton,SK17 6SB,69201,Manchester,69201,53.261099,-1.918408
ACCOUNTABULL LIMITED,16017573,84 Kings Road,Manchester,M16 9NG,"69201, 69202",Manchester,69201,53.455923,-2.268653
ATR ACCOUNTANTS LIMITED,09998469,45 Edilom Road Crumpsall,Manchester,M8 4HY,69201,Manchester,69201,53.519711,-2.253128
SCULLARD & CO LIMITED,07075645,197-201 Manchester Road,Altrincham,WA14 5NU,69201,Manchester,69201,53.401539,-2.352476
NAHK LIMITED,08294144,21 Harvard Grove,Salford,M6 8GT,69201,Manchester,69201,53.490413,-2.312669
ASSURACC LIMITED,12309865,10th Floor 3 Hardman Street,Manchester,M3 3HF,69201,Manchester,69201,53.47988,-2.250781
A. PATEL & CO (NW) LIMITED,04970208,341 Derby Street,Greater Manchester,BL3 6LR,69201,Manchester,69201,53.566922,-2.44328
KW ACCOUNTANCY LTD,14021455,10 Park Place,Manchester,M4 4EY,"69201, 69202",Manchester,69201,53.490756,-2.241907
LANCHESTER HYDE LIMITED,03674526,55 Porchfield Square,Manchester,M3 4FG,69201,Manchester,69201,53.476893,-2.251939
PRIME TAX UK LTD,16118311,562-564 Manchester Road,Bradford,BD5 7LR,69201,Manchester,69201,53.780765,-1.760025
FHT LTD,13089046,7e Windsor Road,Manchester,M19 2FA,"62012, 69201, 74209, 98000",Manchester,69201,53.445143,-2.195714
ECCO ACCOUNTANTS LTD,09351776,23 Hilton Crescent,Manchester,M25 9NQ,"69201, 69202",Manchester,69201,53.519962,-2.274109
EDWARD AVENUE LIMITED,14694575,Bartle House,Manchester,M2 3WQ,69201,Manchester,69201,53.476469,-2.243906
NABARRO POOLE LTD.,04398765,31 Church Road,Manchester,M22 4NN,69201,Manchester,69201,53.407319,-2.257441
AKL GROUP LTD,12260236,Office 203 Oakland House,Manchester,M16 0PQ,69201,Manchester,69201,53.460203,-2.283606
SUMMIT ACCOUNTANTS LIMITED,10527788,M.01 Tomorrow,Salford,M50 2AB,"69201, 69202, 69203",Manchester,69201,53.473677,-2.301759
JOLEY ASSOCIATES LIMITED,04312711,94 Crab Lane,Manchester,M9 8WB,69201,Manchester,69201,53.529968,-2.23056
ATS ACCOUNTING AND TAX SOLUTIONS MCR LTD,13069291,04 Westdale Gardens,Manchester,M19 1JD,"69201, 69202",Manchester,69201,53.427958,-2.195063
J&P ACCOUNTANTS LIMITED,08826783,Second Floor 16 Nicholas Street,Manchester,M1 4EJ,69201,Manchester,69201,53.478346,-2.240225
A & CO ACCOUNTANTS (NMN) LTD,07869294,42 Milton Road,Manchester,M32 0TQ,"69201, 69202, 69203",Manchester,69201,53.45291,-2.295996
ACCOUNTS & TAX ADVICE LIMITED,11542131,605 Oldham Road,Manchester,M35 9AN,69201,Manchester,69201,53.514994,-2.151021
ACORN ACCOUNTANCY & PAYROLL LTD,14737299,Acorn Business Centre Unit C Aldow Enterprise Park,Manchester,M12 6AE,69201,Manchester,69201,53.47621,-2.219903
CONTACS LIMITED,04628868,66 Windsor Road,,M19 2EB,69201,Manchester,69201,53.445439,-2.196212
TAMEN ACCOUNTANTS LIMITED,13855867,Michael Sohor & Co,Bolton,BL1 2DD,69201,Manchester,69201,53.582039,-2.431294
CNA & CO ACCOUNTANTS LTD,11759036,C N A & Co Accountants,Manchester,M12 4QL,69201,Manchester,69201,53.449238,-2.192541
DEL VIGNA ACCOUNTANCY SOLUTIONS LTD,12394762,Gregs Buildings,Manchester,M2 4AD,"69201, 69203",Manchester,69201,53.480461,-2.243416
INSIGHT ACCOUNTING & TAX SOLUTIONS LTD,15245915,4 Westdale Gardens,Manchester,M19 1JD,"69201, 69202",Manchester,69201,53.427958,-2.195063
PROACC ACCOUNTANTS LIMITED,16108511,5 Harrison Avenue,Manchester,M19 3DD,69201,Manchester,69201,53.447367,-2.187699
LINTO ACCOUNTANCY LTD,15382393,Bartle House,Manchester,M2 3WQ,69201,Manchester,69201,53.476469,-2.243906
JY BELTIN LIMITED,14744222,34 Shrewsbury Close,Manchester,M24 6DA,"58290, 69201, 69202, 70229",Manchester,69201,53.563563,-2.191822
INQUESTA FORENSIC ACCOUNTING LIMITED,07895555,St John's Terrace,Manchester,M26 1LS,69201,Manchester,69201,53.556897,-2.319981
BLUELINE MANAGEMENT LIMITED,07052576,29 Kingfisher Avenue,Manchester,M34 5QH,69201,Manchester,69201,53.48096,-2.132155
ZERO ONE CONSULTANTS LTD,08114008,15 Holborn Drive,Manchester,M8 8US,"69201, 69202, 69203, 82110",Manchester,69201,53.500437,-2.232555
LC DEBT SOLUTIONS LIMITED,05033119,Riverside House,Manchester,M3 5EN,69201,Manchester,69201,53.480686,-2.256406
REACT ACCOUNTANCY LIMITED,07861330,Suite A 8th Floor St James House,Salford,M6 5FW,"69201, 69202",Manchester,69201,53.48872,-2.289025
PENNINE CONSULT LTD,14061151,The Bee Hive 113a,Manchester,M8 8HW,69201,Manchester,69201,53.494869,-2.243649
COMPANY MATTERS LTD,07896442,77 School Lane,Manchester,M20 6WN,"69201, 69203",Manchester,69201,53.417118,-2.225361
MCKENNA STOCKTAKE UK LTD,14056842,5 Woodend Manor Manchester Road,Ashton-Under-Lyne,OL5 9FH,69201,Manchester,69201,53.521135,-2.035826
ATP ACCOUNTANCY LTD,13890040,Suite 2 Parkway 5 Parkway Business Centre,Manchester,M14 7HR,"69201, 69202, 69203",Manchester,69201,53.44852,-2.245915
STERLING PARTNERS LIMITED,06974542,Grove House 2nd Floor 774-780 Wilmslow Road,Manchester,M20 2DR,"69201, 69203",Manchester,69201,53.415639,-2.232319
DAVID RUBIN & PARTNERS LTD,08977557,340 Deansgate,Manchester,M3 4LY,69201,Manchester,69201,53.474988,-2.251792
PERK CONSULTANTS LIMITED,13927291,61 Linford Avenue,Manchester,M40 0FB,"69201, 69202, 69203",Manchester,69201,53.520179,-2.178293
212 ACCOUNTING LTD,13070341,Whitecroft Cottage,Baxenden,BB5 2QF,"69201, 82990",Manchester,69201,53.736859,-2.348864
COUNTWISE ADVISORS LTD,14847401,315 Dickenson Road,Manchester,M13 0NR,"62020, 69201, 69203, 70229",Manchester,69201,53.455727,-2.203895
OUTSOURCE ACCOUNTANCY LIMITED,04112757,8 Welbeck Road,Manchester,M30 9EH,69201,Manchester,69201,53.494628,-2.342123
CONSTRUCTIONHELPDESK PVT LTD,12678698,"Apartment 605, Lumiere Build 38, City Road East",Manchester,M15 4QN,"69201, 79110, 85320, 85600",Manchester,69201,53.472125,-2.249877
HEATON ACCOUNTANCY SERVICES LTD,06536774,"113 Treen Road, Astley",Manchester,M29 7HB,69201,Manchester,69201,53.511772,-2.44741
THINK BIG ACCOUNTING LIMITED,11823879,International House,Manchester,M2 3HZ,69201,Manchester,69201,53.479531,-2.240789
GLONICE LTD,10520140,Initial Business Centre,Manchester,M40 8WN,"69201, 85590",Manchester,69201,53.499615,-2.205552
SLADE & COOPER LIMITED,05385401,Beehive Mill,Manchester,M4 6JG,69201,Manchester,69201,53.485007,-2.226112
CM CONSULTANTS LIMITED,08710783,2 Oakdene Road,Manchester,M24 2FQ,"69201, 70229",Manchester,69201,53.547787,-2.175104
YAN ACCOUNTANCY SERVICES LTD,12441420,15 Oldham Road,Manchester,M4 5EQ,69201,Manchester,69201,53.485264,-2.232804
COVERASSET LIMITED,02600172,29 Arthur Street,Manchester,M27 0HP,69201,Manchester,69201,53.506934,-2.354057
R MOORE ACCOUNTANCY LTD,13206501,International House,Manchester,M2 3HZ,"69201, 69202, 69203",Manchester,69201,53.479531,-2.240789
G WATSON CONSULTING LIMITED,08894086,Flat 4 5a,Manchester,M21 9DJ,69201,Manchester,69201,53.439088,-2.276134
LEV LTD,16245100,111 Rico House,Manchester,M25 9WS,69201,Manchester,69201,53.51854,-2.274718
LEANNE ORME MEDIA PRODUCTION FINANCE LTD,16305329,20 Windsor Avenue,Manchester,M41 5GP,69201,Manchester,69201,53.450573,-2.381325
CO-GENCY ACCOUNTANTS LIMITED,09952047,"C/O Co-Gency Corporate Finance Limited 2nd Floor, Lowry Mill",Swinton,M27 6DB,69201,Manchester,69201,53.517927,-2.335734
FINSYNC UK LIMITED,16272783,1 Kinder Way,Manchester,M24 5DE,"69201, 69202, 70221, 70229",Manchester,69201,53.558677,-2.200269
MA CONSULTANTS MCR LIMITED,16269763,16 Methuen Street,Manchester,M12 5TF,"69201, 69203, 70229, 82990",Manchester,69201,53.452724,-2.188189
ALTARA ADVISORY LTD,11978406,33 Skerry Close,Manchester,M13 9UD,"69201, 70229, 82990",Manchester,69201,53.47044,-2.229319
JEN FROM ACCOUNTS LTD,16272412,25 Marle Croft,Manchester,M45 7NB,69201,Manchester,69201,53.540491,-2.31456
ANKA ACCOUNTANTS LTD,14664864,Waters Edge Business Park Modwen Road,Salford,M5 3EZ,"69201, 69203",Manchester,69201,53.468003,-2.276863
ADAM CALLEGARIS LIMITED,09317505,52 Clifton Road,Manchester,M25 3HR,69201,Manchester,69201,53.532582,-2.289368
CHAMPION ALLWOODS LIMITED,04488097,1 Worsley Court,Manchester,M28 3NJ,69201,Manchester,69201,53.524208,-2.400162
TREE GROWTH LIMITED,08491773,3rd Floor Eastgate,Castlefield,M3 4LZ,69201,Manchester,69201,53.474461,-2.254742
BDS (PRESTON) LTD,13742372,103 Hazelhurst Road,Manchester,M26 2SW,69201,Manchester,69201,,
TRIDENT FINANCIAL SERVICES LIMITED,16127127,The Point,Manchester,M8 8LG,"69201, 70221",Manchester,69201,53.496551,-2.238413
SMART CITY ACCOUNTANTS & TAX ADVISERS LIMITED,07596158,55-B Derby Street,Manchester,M8 8HW,"69201, 69202, 69203, 70221",Manchester,69201,53.494869,-2.243649
BH ACCOUNTS LIMITED,10660228,1st Floor Cloister House Riverside,Manchester,M3 5FS,69201,Manchester,69201,53.48266,-2.253721
MIA & CO ACCOUNTANTS LIMITED,15164425,Initial Business Centre,Manchester,M40 8WN,"69201, 69202, 69203",Manchester,69201,53.499615,-2.205552
BOWDON ACCOUNTING SERVICES LTD,15246055,Bartle House,Manchester,M2 3WQ,69201,Manchester,69201,53.476469,-2.243906
AGP CONSULTING LIMITED,11750088,14 Cranleigh Drive,Manchester,M28 7ET,69201,Manchester,69201,53.513212,-2.390271
TJS FINANCE ASSOCIATES LTD,11036799,19 Hartley Road,Manchester,M21 9NG,69201,Manchester,69201,53.446024,-2.281313
PROPERTY PLUS ACCOUNTANTS LIMITED,15294672,85 Bury Old Road,Manchester,M25 0FQ,69201,Manchester,69201,53.522359,-2.26334
SRT ACCOUNTING SERVICES LTD,08874730,Ivy Mill Business Centre Silicon City Suite 2/3,Manchester,M35 9BG,"69201, 69202",Manchester,69201,53.512065,-2.157299
JL ACCOUNTANCY SERVICES LTD,07181236,726 Bolton Road,Manchester,M27 6EW,"69201, 69202, 69203",Manchester,69201,53.519989,-2.334408
WATKINSONBLACK (SERVICES) LTD,03711522,1st Floor 264 Manchester Road,Warrington,WA1 3RB,69201,Manchester,69201,53.396612,-2.571248
TAX & ACCOUNTANCY LTD,16342946,902 Chester Road,Manchester,M32 0PA,69201,Manchester,69201,53.453953,-2.299421
TRAFALGAR ASSOCIATES LIMITED,02882739,38 Barnhill Road,Manchester,M25 9NH,69201,Manchester,69201,53.523839,-2.28056
BEYOND THE BOOKS ACCOUNTING SERVICES LTD,15566181,22 Whitegate Park,Manchester,M41 6LW,"69201, 69202",Manchester,69201,53.44718,-2.385315
BRIGHT IDEAS ACCOUNTING LTD,11050351,80 Ashton Road,Manchester,M34 3JF,69201,Manchester,69201,53.4591,-2.115069
ENVYTAX LIMITED,15510177,Lord House,Manchester,M3 1HE,69201,Manchester,69201,53.491834,-2.241989
ROSADIGITS ACCOUNTANTS LTD,16348222,Apartment 1 Block D,Manchester,M4 7AQ,"69201, 69202, 70221",Manchester,69201,53.479248,-2.219919
MY SWEET PET LTD,12240009,2 Court Drive,Manchester,M40 1QX,"47760, 69201, 69202, 82990",Manchester,69201,53.494473,-2.165072
DNA SERVICES LTD,04188945,276 Palatine Road,Manchester,M22 4FR,69201,Manchester,69201,53.411593,-2.255436
ALETHEIA ACCOUNTING SERVICES LTD,14747644,1 Morland Road,Manchester,M16 9WZ,"69201, 78109",Manchester,69201,53.456818,-2.270195
SJ & ASSOCIATES LTD,08417820,33 Bent Street 2nd Floor,Manchester,M8 8NW,69201,Manchester,69201,53.49673,-2.239107
C.J.H ACCOUNTING LIMITED,14632190,226 Sandy Lane,Manchester,M43 7JX,69201,Manchester,69201,53.487748,-2.13088
SLW ACCOUNTANCY SERVICES LIMITED,16348937,Brulimar House Jubilee Road,Manchester,M24 2LX,69201,Manchester,69201,53.55452,-2.186256
ONE ACCOUNTANTS LTD,10658537,78 Dickenson Road,Manchester,M14 5HF,69201,Manchester,69201,53.452221,-2.219237
LIVING STONE BUSINESS CONSULTANTS LTD,15671850,International House,Manchester,M2 3HZ,69201,Manchester,69201,53.479531,-2.240789
E & A FINANCIAL SERVICES LTD,13363680,Suite 3 Mayfair House,Manchester,M20 6PL,"69201, 69202",Manchester,69201,53.416181,-2.231164
PAYGUARD LTD,09072910,"Unit C, Aldow Enterprise Park",Manchester,M12 6AE,"69201, 69202, 82190",Manchester,69201,53.47621,-2.219903
SCRIBBLE BUSINESS SERVICES LIMITED,03805825,Initial Business Centre Unit 7,Manchester,M40 8WN,69201,Manchester,69201,53.499615,-2.205552
PAM MASSEY LIMITED,04672599,Foxgloves 46 Market Street,Radcliffe,M26 1HB,69201,Manchester,69201,53.545816,-2.369337
WELL PAY PAYROLL LTD,11258343,Parkway 5 Suite 2 Parkway Business Centre,Manchester,M14 7HR,"69201, 69202, 70229, 82990",Manchester,69201,53.44852,-2.245915
SUBLIME ACCOUNTANTS LIMITED,15350858,69 Guildford Road,Manchester,M19 3ER,"69201, 69202",Manchester,69201,53.449427,-2.181188
TEN ACRE 1842 LTD,13199128,6 Hamilton Road,Manchester,M25 9GG,69201,Manchester,69201,53.526446,-2.284409
O'BRIEN PAYROLL UK LIMITED,04703306,1 Sibson Road,Lancashire,M21 9RH,69201,Manchester,69201,53.443951,-2.283678
PAYSTREAM ACCOUNTING SERVICES LIMITED,07598955,Mansion House,Altrincham,WA14 4RW,"62012, 69201, 69202, 69203",Manchester,69201,53.397888,-2.353017
MIARZA LIMITED,12352664,4 Holmfield Avenue,Manchester,M25 0BH,69201,Manchester,69201,53.524225,-2.268797
LAYTONS ACCOUNTANTS & BUSINESS ADVISERS LIMITED,13282487,6 Manchester Road,Buxton,SK17 6SB,69201,Manchester,69201,53.261099,-1.918408
INTEGER ADVISORY LIMITED,08447357,"5th Floor, 49 King Street King Street",Manchester,M2 7AY,"69201, 70229",Manchester,69201,53.481275,-2.245108
A & C ACCOUNTS AND BOOKKEEPING SERVICES LIMITED,04998057,64a Whittaker Lane,Manchester,M25 1ET,69201,Manchester,69201,53.528671,-2.270122
MY ACCOUNTING EXPERT LTD,15218283,Piccadilly Business Centre,Manchester,M12 6AE,"69201, 69202",Manchester,69201,53.47621,-2.219903
HARIA CONSULTANCY SERVICES LIMITED,12551499,69 Drywood Avenue,Manchester,M28 2QA,"69201, 69202, 69203",Manchester,69201,53.497836,-2.372402
GLAD ACCOUNTANCY LIMITED,15230338,Office 5 197 Manchester Road,Altrincham,WA14 5NU,"69201, 69203",Manchester,69201,53.401539,-2.352476
FD DIRECT (NW) LIMITED,10174489,Reedham House,Manchester,M3 2PJ,"69201, 70221, 70229",Manchester,69201,53.48185,-2.249828
FFT LIMITED,04510195,C/O Freedman Frankl & Taylor,31 King Street West,M3 2PJ,69201,Manchester,69201,53.48185,-2.249828
BEARDSELL FORENSIC ACCOUNTING LTD,15816294,Peter House,Manchester,M1 5AN,69201,Manchester,69201,53.477108,-2.243683
VIBAS LTD,09444222,International House,Manchester,M2 3HZ,"69201, 69202",Manchester,69201,53.479531,-2.240789
CREATOR COLLECTIVE SOLUTIONS LTD,16421961,Piccadilly Business Centre Blackett Street,Manchester,M12 6AE,"69201, 82110",Manchester,69201,53.47621,-2.219903
KEEPING TRACK ACCOUNTANTS LTD,16428312,Unit C,Manchester,M12 6AE,69201,Manchester,69201,53.47621,-2.219903
GM & CO ACCOUNTANTS LTD,16427378,Bartle House,Manchester,M2 3WQ,69201,Manchester,69201,53.476469,-2.243906
ACCOUNTANT@WORK LTD,08582896,4 Westwood Avenue,Manchester,M28 0HS,69201,Manchester,69201,53.523266,-2.418087
JOHNSON GEDDES LIMITED,06837560,Office 4 41 - 43 Liverpool Road,Manchester,M44 5BQ,69201,Manchester,69201,53.430908,-2.43342
WATERMARK FORENSIC LIMITED,11624394,795 Stockport Road,Manchester,M19 3DL,69201,Manchester,69201,53.446832,-2.191009
ALEXANDER & CO LAWYERS LTD,16550221,Peter House,Manchester,M1 5AN,"69109, 69201",Manchester,69201,53.477108,-2.243683
LOC-NAR TECHNOLOGY LIMITED,16729734,Mansion House,Altrincham,WA14 4RW,69201,Manchester,69201,53.397888,-2.353017
CLEARCUT PARTNERS LTD,16347124,Parkway 5 Parkway Business Centre,Manchester,M14 7HR,"69201, 69202, 69203",Manchester,69201,53.44852,-2.245915
ACCOUNTING SOLUTION MANAGEMENT LTD,16532713,Apartment 7 Velvet House,Manchester,M1 3WE,69201,Manchester,69201,53.475533,-2.235644
HASABA LIMITED,16536046,169 Cheetham Hill Road,Manchester,M8 8LG,"69201, 69203",Manchester,69201,53.496551,-2.238413
3G ACCOUNTING LTD,07576684,Piccadilly Business Centre Unit C Aldow Enterprise Park,Manchester,M12 6AE,69201,Manchester,69201,53.47621,-2.219903
PVG ACCOUNTING SERVICES & CONSULTANCY LTD,07260312,344 Moston Lane,Manchester,M40 9JS,"69201, 69202, 69203, 82990",Manchester,69201,53.51369,-2.194838
STRAIGHT EDGE ACCOUNTING SOLUTIONS LIMITED,10771134,1 Holly House Drive,Manchester,M41 6QS,"69201, 70221",Manchester,69201,53.447693,-2.382459
3RD EYE ACCOUNTAX LTD,10712796,Meadowbrook,Manchester,M26 4JG,69201,Manchester,69201,53.577311,-2.339135
MACARON CONSULTING LTD,08687620,Unit 7 Wilson Business Park,Manchester,M40 8WN,"10710, 69201, 69202",Manchester,69201,53.499615,-2.205552
NORRIE GIBSON & CO LIMITED,05042200,"Flat 7 Hickory Grange, Parr Hill",Manchester,M45 7ER,69201,Manchester,69201,53.544762,-2.29597
NRM CONSULTING LIMITED,16460848,Mansion House,Altrincham,WA14 4RW,69201,Manchester,69201,53.397888,-2.353017
LIBAAN ACCOUNTING LTD,15704942,22 Heald Place,Manchester,M14 4EA,69201,Manchester,69201,53.457011,-2.229292
CLEARCUT ACCOUNTING LIMITED,07266430,Parkway 5 Parkway Business Centre,Manchester,M14 7HR,"69201, 69202, 69203",Manchester,69201,53.44852,-2.245915
UBUNTU ACCOUNTING & BUSINESS CONSULTANTS LTD,11388878,Building 1 Suite 1a-4 Monsall Road,Manchester,M40 8WN,"69201, 69202, 70229",Manchester,69201,53.499615,-2.205552
THINK GROUP FINANCIAL LIMITED,16528642,The Point Building,Manchester,M8 8LG,"69201, 69202, 69203",Manchester,69201,53.496551,-2.238413
XEINADIN CORPORATE FINANCE LIMITED,11380661,100 Barbirolli Square,Manchester,M2 3BD,69201,Manchester,69201,53.475731,-2.244353
VANTAGE ACCOUNTING SOLUTIONS LTD,16540496,First Floor Swan Buildings,Manchester,M4 5JW,"69201, 69202",Manchester,69201,53.485461,-2.233302
REDSTONE ACCOUNTANCY (NW) LIMITED,16552584,253 Monton Road,Manchester,M30 9PS,69201,Manchester,69201,53.491594,-2.353191
REDUX FORENSIC ACCOUNTANTS LTD,13514198,"Unit 118, Carioca Business Park Sawley Road",Manchester,M40 8BB,"69201, 69203, 70229",Manchester,69201,53.491602,-2.212778
EXUS UK&I LIMITED,16572802,2 New Bailey,Salford,M3 5GS,"41100, 69201, 70229, 74909",Manchester,69201,53.481442,-2.256004
NEXUS EN LTD,15880023,82 King Street,Manchester,M2 4WQ,"69201, 70229",Manchester,69201,53.480793,-2.243719
THE FIFTH WICK LTD,16035575,86 Derby Street,Manchester,M8 8JW,"69201, 69202, 70221, 96090",Manchester,69201,53.4978,-2.251761
AMS AUDIT LIMITED,07766813,1 Hardman Street,Manchester,M3 3HF,69201,Manchester,69201,53.47988,-2.250781
ACCOUNTANCY MADE EASY (R/DALE) LTD,09706539,151b Bury New Road,Manchester,M45 6AA,"69201, 69202, 69203",Manchester,69201,53.5455,-2.291961
LM ACCOUNTANTS LIMITED,13921185,Bartle House,Manchester,M2 3WQ,"69201, 69202",Manchester,69201,53.476469,-2.243906
THE WEB ACCOUNTANTS LTD,14618146,86 Bury Old Road,Manchester,M8 5BW,"69201, 69202, 69203",Manchester,69201,53.514296,-2.246535
CLARITY BUSINESS CONSULTING LIMITED,16638290,Mansion House,Altrincham,WA14 4RW,69201,Manchester,69201,53.397888,-2.353017
JC TAX ADVISORY LIMITED,16639467,Bartle House,Manchester,M2 3WQ,"69201, 69203",Manchester,69201,53.476469,-2.243906
NB FINANCIAL ADVISORS LIMITED,16627487,104 Farmstead Drive Westhoughton,Bolton,BL5 3WB,"69201, 69203",Manchester,69201,53.548144,-2.502655
NOVARO FINANCIAL LTD,16838165,Unit C,Manchester,M12 6AE,"47910, 58290, 69201, 70229",Manchester,69201,53.47621,-2.219903
BOOKEPER LTD,16860196,109 Clarence Road,Manchester,M13 0ZE,"69201, 69202, 69203",Manchester,69201,53.456667,-2.206173
ACCOUNTANCYNET LTD,13854393,221 Slade Lane,Manchester,M19 2EX,"69201, 69202, 69203",Manchester,69201,53.442729,-2.198955
INTEL ACCOUNTING LTD,16869326,27 Newcroft Crescent,Manchester,M41 9NW,69201,Manchester,69201,53.444771,-2.334797
VISTRA CONSULTING LIMITED,16919683,Initial Business Centre,Manchester,M40 8WN,"62020, 69201, 94110, 96090",Manchester,69201,53.499615,-2.205552
CLARITAX ACCOUNTANTS LTD,13000707,"Office 9, Unit B Madison Place",Manchester,M40 5AG,"69201, 69202, 69203",Manchester,69201,53.504502,-2.196515
EDRAK GLOBAL LTD,16488936,90 Kershaw Lane,Manchester,M34 5SQ,"69201, 69202, 69203, 70229",Manchester,69201,53.479445,-2.136324
ACCOUNTANEERS LTD,15830447,"Brighton House, Office 2",Manchester,M14 5JQ,"69201, 69202, 69203, 70229",Manchester,69201,53.449613,-2.220203
CONRADIE LTD,14504006,"88 School Lane, Manchester",Manchester,M20 6GH,"69201, 70229",Manchester,69201,53.416455,-2.224319
SYNCADE FINANCE SOLUTIONS LTD,16876286,107 Mosley Common Road,Manchester,M28 1AH,"69201, 70229",Manchester,69201,53.508428,-2.430426
BI ACCOUNTANCY LTD,09352377,80 Ashton Road,Manchester,M34 3JF,69201,Manchester,69201,53.4591,-2.115069
BRIDGEPOINT FINANCIAL LTD,16881143,Flat 5 Bridgeman Place 19-23 Manchester Road,Bolton,BL2 1EH,"69201, 70221, 70229, 82990",Manchester,69201,53.574588,-2.423486
FINADATAMETRICS ENTERPRISE LIMITED,16826154,5 Imperial Way,Manchester,M9 8FE,"63110, 69201, 70221, 70229",Manchester,69201,53.520964,-2.224433
ZHQ CONSULTING LTD,11651577,C/O Menzies Llp One Express,Manchester,M4 5DL,"66210, 69201, 70221, 70229",Manchester,69201,53.484575,-2.231369
HINCHCLIFFE FINANCE & BUSINESS SOLUTIONS LTD,16920727,9 Humphrey Cresent,Urmston,M41 9PU,"69201, 78300, 82110",Manchester,69201,53.450529,-2.332885
WIE ACCOUNTANT LIMITED,16928535,City View House 5 Union Street,Manchester,M12 4JD,"69201, 69202, 69203, 70221",Manchester,69201,53.472865,-2.220865
TRENDS ACCOUNTING LTD,13099614,Bartle House,Manchester,M2 3WQ,"69201, 69202",Manchester,69201,53.476469,-2.243906
TRANSACCOUNTS LTD,15654980,International House,Manchester,M2 3HZ,"69201, 69203",Manchester,69201,53.479531,-2.240789
AUGMENT GROUP LIMITED,16680048,Bartle House,Manchester,M2 3WQ,"69201, 69202, 70229, 73110",Manchester,69201,53.476469,-2.243906
UAEB ACCOUNTANCY SERVICES LTD,16661727,176 Platt Lane,Manchester,M14 7DE,"69201, 69202, 69203",Manchester,69201,53.449594,-2.23008
A ACCOUNTS SERVICES LTD,15289943,Unit 114 Hellidon Close,Manchester,M12 4AH,69201,Manchester,69201,53.468692,-2.217364
CLJB LIMITED,16555513,Fft Reedham House,Manchester,M3 2PJ,69201,Manchester,69201,53.48185,-2.249828
GN ACCOUNTANCY & CONSULTING LTD,16657196,5 Keston Avenue,Manchester,M9 7AQ,"69201, 69203, 70229",Manchester,69201,53.526177,-2.193674
TAXGURU ACCOUNTANTS LIMITED,16456812,"Office 20, Halifax House",Manchester,M3 2GX,"69201, 69203",Manchester,69201,53.481089,-2.248287
ONLINE ACCOUNTING SOLUTIONS LTD.,05926042,C/O My Online Accountant Piccadilly Business Centre,Manchester,M12 6AE,69201,Manchester,69201,53.47621,-2.219903
ATS FINANCIAL SERVICES AND CONSULTANCY LIMITED,16715936,25 Sheerness Street,Manchester,M18 8TY,"66300, 69201",Manchester,69201,53.462657,-2.169662
PEERS & ASSOCIATES LIMITED,08352484,19 Hoy Drive,Manchester,M41 7HF,"69201, 69202",Manchester,69201,53.461493,-2.352415
LOTE TREE ACCOUNTANTS LTD,16611165,"Apt 632, 6 Leftbank",Manchester,M3 3AE,"69201, 82990",Manchester,69201,53.480987,-2.253982
ENTROPY ACCOUNTING LTD,16954578,International House,Manchester,M2 3HZ,"69201, 69202",Manchester,69201,53.479531,-2.240789
2AA ACCOUNTING LTD,16067267,"First Floor, Swan Buildings",Manchester,M4 5JW,69201,Manchester,69201,53.485461,-2.233302
NICHE ESTABLISHMENT LTD,13355114,"Office 4, 1/F 898 Chester Road",Manchester,M32 0PA,"69109, 69201, 70229",Manchester,69201,53.453953,-2.299421
JRH CONSULTANCY 22 LTD,15360837,The Tube 23 Vital House 86 North Street,Manchester,M8 8RA,"69201, 69202, 69203",Manchester,69201,53.494615,-2.235629
ASCENSO ACCOUNTING LTD,17047153,"1110, 7, Cortland Bankside Boulevard",Manchester,M3 7HF,69201,Manchester,69201,53.486929,-2.249496
OLMS ACCOUNTANTS LTD,16985495,13 Doncaster Avenue,Manchester,M20 1AG,"69201, 70221",Manchester,69201,53.438848,-2.237188
R & Y ASSOCIATES LIMITED,16972957,Lord House,Manchester,M3 1HE,69201,Manchester,69201,53.491834,-2.241989
MICHAELALEXCIA ACCOUNTING SERVICES LTD,12583198,Piccadilly Business Centre Unit C Aldon Enterprise Park,Manchester,M12 6AE,69201,Manchester,69201,53.47621,-2.219903
VANTAGEPOINTDATAI LTD,17070885,Flat 4 949 Rochdale Road,Manchester,M9 8AE,"63110, 69201, 70221, 70229",Manchester,69201,53.514603,-2.213195
HELPDESK ACCOUNTING LTD,17065252,Flat 31 Shorecliffe Rise 27 Radcliffe New Road,Manchester,M26 1LE,69201,Manchester,69201,53.556868,-2.314124
AKRAM & CO TAX CONSULTING LTD,13873315,"1st Floor, 64 Dickenson Road",Manchester,M14 5HF,"69201, 69203",Manchester,69201,53.452221,-2.219237
NUVON ACCOUNTANTS LTD,17081563,Flat B1701 9 Owen Street,Manchester,M15 4UB,69201,Manchester,69201,53.472184,-2.25149
NUMEROLOGY ACCOUNTANTS LTD,14676993,2 Croft Street,Hyde,SK14 1LH,"69201, 69202, 69203",Manchester,69201,53.449565,-2.079327
BRITVEX ADVISORY LTD,16133503,27 Gadbury Fold,Manchester,M46 0GN,"69201, 69202, 70229, 82990",Manchester,69201,53.522553,-2.507148
SLIM CO-ACS LTD,14907948,4 Vale Top Avenue,Manchester,M9 4LE,69201,Manchester,69201,53.50766,-2.205003
QADEER AND CO LTD,17100873,322 Slade Lane,Manchester,M19 2BY,"69201, 69202, 69203",Manchester,69201,53.443753,-2.199577
AUREX ADVISORY LTD,17111647,31 Westbank Road,Manchester,M20 4SU,"69201, 69202, 70221, 70229",Manchester,69201,53.428972,-2.21221
MUCHINO ACCOUNTING LIMITED,16603914,Bartle House,Manchester,M2 3WQ,69201,Manchester,69201,53.476469,-2.243906
M G ELLISON LTD,17118352,15 Burbridge Close,Manchester,M11 3DW,"69201, 69202",Manchester,69201,53.47883,-2.207652
TAXSHOP OUTLETS LTD,14761246,5 Tyldesley Road,Manchester,M46 9DA,69201,Manchester,69201,53.523246,-2.489689
VAT CONSULTANCY UK LTD,15722391,19-21 Rutland Street,Bolton,BL3 3NW,69201,Manchester,69201,53.565151,-2.445617
ARAUCANA LIMITED,07584227,37 Whitelow Road,Manchester,M21 9HG,69201,Manchester,69201,53.439525,-2.281707
SUBSTANTIATE SOLUTIONS LTD,12227377,76 Hilton Lane,Manchester,M28 0TA,"69201, 82990, 85590",Manchester,69201,53.522583,-2.412892
BR FINANCIAL LIMITED,10803264,155 Princess Road,Manchester,M14 4RE,"69201, 69202, 69203",Manchester,69201,53.45468,-2.244745
PARK LANE PARTNERS LIMITED,06278039,1st Floor Rico House George Street,Manchester,M25 9WS,"69201, 69202, 69203",Manchester,69201,53.51854,-2.274718
ANGLO RETAIL LIMITED,07783749,"Unit 94, Cariocca Business Park 2 Hellidon Close",Manchester,M12 4AH,"69201, 69203",Manchester,69201,53.468692,-2.217364
MAN AUDIT AND CONSULTING LIMITED,14437633,74 Dean Road,Manchester,M44 5AJ,69201,Manchester,69201,53.432733,-2.435892
CHREMA ACCOUNTANCY LIMITED,14952591,113 Lawton Moor Road,Manchester,M23 0PR,69201,Manchester,69201,53.408598,-2.284165
DJH MANCHESTER LIMITED,03413916,6th Floor St George's House,Manchester,M2 3NQ,"69201, 69202, 69203",Manchester,69201,53.477553,-2.245946
LMO BOOKKEEPING LIMITED,15839425,15 Attercliffe Road,Manchester,M21 9FS,"69201, 69202",Manchester,69201,53.437538,-2.285743
MANNET LIMITED,13438777,Reedham House,Manchester,M3 2PJ,69201,Manchester,69201,53.48185,-2.249828
PRIME INTEGERS LTD.,12881697,1210a Stockport Road,Manchester,M19 2RA,69201,Manchester,69201,53.436181,-2.185
VERITAS ACCOUNTANTS GROUP LIMITED,11903722,The Lexicon,Manchester,M2 5NT,69201,Manchester,69201,53.478083,-2.245708
BELFIELD & CO LIMITED,07478206,15 Medlock Road,Manchester,M35 9UA,69201,Manchester,69201,53.503957,-2.136041
IFA ACCOUNTANCY SERVICES LIMITED,07174625,87 Markfield Avenue,Manchester,M13 9AX,69201,Manchester,69201,53.463687,-2.216073
TP ACCOUNTING & CONSULTANCY LTD,12882623,81 Stockport Road,Manchester,M34 6DD,69201,Manchester,69201,53.453808,-2.112329
DIAMOND LEDGERS LTD,04820890,3 Campbell Road,Swinton,M27 5QG,"69201, 69202",Manchester,69201,53.503703,-2.343221
LESACA LIMITED,11415213,Halpern & Co,London,W1U 7LL,69201,Manchester,69201,51.518856,-0.154356
M ALI FINANCE LTD,15833270,65 Anson Street,Manchester,M30 8HH,69201,Manchester,69201,53.492246,-2.360341
JEP ACCOUNTANCY LTD,05169748,536 6 Leftbank,Manchester,M3 3AE,69201,Manchester,69201,53.480987,-2.253982
FASTNET FIGURES LTD,13688483,34 Greenhaven Close,Manchester,M28 3TX,69201,Manchester,69201,53.525387,-2.385873
CAMPBELLS PROFESSIONAL PARTNERSHIP LIMITED,09047057,Intermart House 76 Church Street,Bolton,BL6 6AB,69201,Manchester,69201,53.598692,-2.540215
MAP ACCOUNTANTS (EASTBOURNE) LTD,11548545,16 Blackfriars Street,Manchester,M3 5BQ,69201,Manchester,69201,53.484216,-2.248697
TAXES DONE RIGHT LTD,14825016,Piccadilly Business Centre  Aldow Enterprise Park,Manchester,M12 6AE,"69201, 69202, 69203",Manchester,69201,53.47621,-2.219903
THRIVE NOW LTD,13403316,198 Liverpool Road,Manchester,M44 5DB,69201,Manchester,69201,53.423731,-2.439487
PAY ACCOUNT & SERVICES LIMITED,14904488,9 Thornhill Close,Manchester,M34 2HS,69201,Manchester,69201,53.449321,-2.14758
RPG AUDIT SERVICES LIMITED,04010470,The Copper Room Deva City Office Park,Manchester,M3 7BG,69201,Manchester,69201,53.484305,-2.253504
CLUES LTD,14047761,Cardinal House,Manchester,M3 2LY,"64205, 69201, 69202, 69203",Manchester,69201,53.482551,-2.249636
MADISON BUSINESS SERVICES LIMITED,03800186,Bushbury House,Manchester,M20 4AF,69201,Manchester,69201,53.43512,-2.22651
AR BUSINESS SOLUTIONS LTD,04434329,66 Seymour Grove,Manchester,M16 0LN,"69201, 69202, 69203",Manchester,69201,53.459403,-2.27607
HALPERN ACCOUNTANTS LIMITED,13385263,40 Manchester Street,London,W1U 7LL,69201,Manchester,69201,51.518856,-0.154356
GREENUNA ACCOUNTANTS LTD,14732298,International House,Manchester,M2 3HZ,69201,Manchester,69201,53.479531,-2.240789
ON CLOUD 9 ACCOUNTANCY LTD,10879925,1st Floor Cloister House Riverside,Manchester,M3 5FS,"69201, 69202",Manchester,69201,53.48266,-2.253721
WILLIAMSON CROFT ACCOUNTANTS LIMITED,10332044,20 York Street,Manchester,M2 3BB,69201,Manchester,69201,53.480511,-2.240704
CLEAR START ACCOUNTANTS LIMITED,12315365,Suite 6 4th Floor Universal Square,Manchester,M12 6JH,69201,Manchester,69201,53.470728,-2.214271
M.A. HOYSTED LTD,09839923,7 Brockley Avenue,Manchester,M14 7BP,69201,Manchester,69201,53.448933,-2.232772
FIRST REGIONAL ACCOUNTING LIMITED,09133841,Parkgates Bury New Road,Manchester,M25 0JW,69201,Manchester,69201,53.520594,-2.272559
R & M BUSINESS SERVICES LIMITED,07316910,1 Irvine Avenue,Manchester,M28 1LJ,69201,Manchester,69201,53.502319,-2.419419
CONNECT ACCOUNTING & BUSINESS LTD,09817804,198 Liverpool Road,Manchester,M44 5DB,69201,Manchester,69201,53.423731,-2.439487
ACCOUNTING SOLUTION MCR LTD,12739169,10 Milton Road,Manchester,M32 0RD,"69201, 69202, 69203",Manchester,69201,53.453976,-2.297343
ACCOUNTOLOGY LTD,13516210,189 Great Western Street,Manchester,M14 4LN,69201,Manchester,69201,53.456402,-2.237617
THE CHARTWELL PARTNERSHIP LTD,06302441,47 Bury New Road,Manchester,M25 9JY,"69201, 69203",Manchester,69201,53.519301,-2.27237
CERTIFY IT LIMITED,11816214,Unit 2b Stocks Mill,Manchester,M30 0UT,"62090, 69109, 69201, 70229",Manchester,69201,53.482278,-2.360211
TAXSTATS LTD,10445962,"Work.Life, Core",Manchester,M2 1DH,"69201, 69202, 69203, 82990",Manchester,69201,53.481614,-2.242368
MILLERS ACCOUNTANTS LTD.,02432539,Suite 2a The Belmont,Manchester,M8 4JY,69201,Manchester,69201,53.520258,-2.249541
WILLIAMSON & CROFT AUDIT LIMITED,10492101,York House,Manchester,M2 3BB,69201,Manchester,69201,53.480511,-2.240704
ALEXANDER BURSK LIMITED,08021691,Parkgates Bury New Road,Manchester,M25 0JW,69201,Manchester,69201,53.520594,-2.272559
SEDULO FUNDING SOLUTIONS LIMITED,10276541,Regency Court 62 - 66 Deansgate,Manchester,M3 2EN,69201,Manchester,69201,53.483016,-2.246821
SEDULO CF LIMITED,12250867,Regency Court,Manchester,M3 2EN,69201,Manchester,69201,53.483016,-2.246821
LOVRAN LTD,03443612,15 Adria Road,Manchester,M20 6SQ,"69201, 69202, 69203, 70221",Manchester,69201,53.419851,-2.225195
DIGTAX LIMITED,12246667,"Office 6, 163 Kingsway",Manchester,M19 2ND,"69201, 69202, 69203",Manchester,69201,53.435931,-2.206088
TAVYOMI LIMITED,06301678,The Chartwell Partnership Ltd 47 Bury New Road,Manchester,M25 9JY,"69201, 69202",Manchester,69201,53.519301,-2.27237
BOXED ACCOUNTING LIMITED,14434295,Horton House,Manchester,M32 9BP,69201,Manchester,69201,53.445615,-2.315412
WAQQAS ALI LIMITED,11096412,205 Parrswood Road,Manchester,M20 4RR,69201,Manchester,69201,53.425944,-2.216408
ACCOUNTS & BUSINESS SERVICES LIMITED,11133232,1145 Oldham Road,Manchester,M40 2FU,"69201, 69202, 69203",Manchester,69201,53.503504,-2.17958
NINETEEN THREE CONSULTING LTD,15902340,2 Boars Head Avenue,Wigan,WN6 0BH,69201,Manchester,69201,53.576832,-2.643555
PREMIER VERIFICATIONS LIMITED,04033439,93 Ellerbeck Crescent,Manchester,M28 7GP,69201,Manchester,69201,53.511251,-2.401819
HBC ACC LIMITED,11476615,319 Dickenson Road,Manchester,M13 0NR,"69201, 69202",Manchester,69201,53.455727,-2.203895
AJC ACCOUNTANCY LIMITED,05894863,"Manchester House, High Street",Sturminster Newton,DT10 2LL,69201,Manchester,69201,50.96021,-2.378423
SK ACCOUNTANTS (MCR) LTD,11033610,86 Bury Old Road,Manchester,M8 5BW,"69201, 69202, 70229, 78300",Manchester,69201,53.514296,-2.246535
MORGAN MENZIES LIMITED,08073063,"Parkway 5, Parkway Business Centre",Manchester,M14 7HR,69201,Manchester,69201,53.44852,-2.245915
HARRISON AND COMPANY (UK) LIMITED,06992309,3 11th Floor,Manchester,M1 3BN,69201,Manchester,69201,53.477714,-2.232808
FREE ACCOUNTANCY LTD,07546015,Clemency Business Centre 354a,Manchester,M40 0JB,69201,Manchester,69201,53.523895,-2.169831
PROVINCIAL TAX SHOPS (UK) LIMITED,03950229,28/30 Wilbraham Road,Manchester,M14 7DW,69201,Manchester,69201,53.443728,-2.228558
SHARJO LTD,04954710,Reedham House,Manchester,M3 2PJ,69201,Manchester,69201,53.48185,-2.249828
JOHN SPIBEY ASSOCIATES LTD,05282961,245 Bury New Road,Manchester,M45 8QP,69201,Manchester,69201,53.552714,-2.297128
CENTRA CONSULTANTS LIMITED,11576277,2 York Street,Manchester,M19 3YS,69201,Manchester,69201,53.44144,-2.190232
CENTRA ACCOUNTANTS LTD,13645050,2 York Street,Manchester,M19 3YS,69201,Manchester,69201,53.44144,-2.190232
ARROW FINANCE LTD,08671212,02 Universal Square,Manchester,M12 6JH,"69201, 69202, 70229",Manchester,69201,53.470728,-2.214271
SORANO ACCOUNTING LIMITED,12096047,61 Mosley Street,Manchester,M2 3HZ,69201,Manchester,69201,53.479531,-2.240789
PRECISION FINANCE & ACCOUNTING LIMITED,14974791,3 Lynmouth Grove,Manchester,M25 9TH,69201,Manchester,69201,53.523396,-2.289079
FERGUSON & CO ACCOUNTANTS LTD,09231787,651 Mauldeth Road West Chorlton Cum Hardy,Manchester,M21 7SA,69201,Manchester,69201,53.432741,-2.268613
AFH ACCOUNTANTS LTD,09755550,Goldfield House 585-587a,Manchester,M8 9JE,69201,Manchester,69201,53.51154,-2.245027
JT ACCOUNTANTS LIMITED,06554865,Flat 1 Sir Matt Busby Way,Manchester,M16 0QG,"69201, 69203",Manchester,69201,53.461827,-2.288632
JOHN A. WALKER PAYROLL SERVICES LTD,05696905,1a Davyhulme Circle,Manchester,M41 0ST,69201,Manchester,69201,53.457155,-2.357469
MCB NW CONSULTANTS LTD,15892112,27 Albert Road,Manchester,M30 9QJ,"41201, 69201, 70221, 74902",Manchester,69201,53.486791,-2.338563
SALAM & CO LTD,13094307,19 Cheetham Hill Road,Manchester,M4 4FY,"69201, 69203, 70229, 74909",Manchester,69201,53.490225,-2.241964
Z S ACCOUNTANTS LTD,10297201,109 Liverpool Road,Manchester,M30 0ND,69201,Manchester,69201,53.48313,-2.348856
TASA  EAGLES ACCOUNTANTS LTD,15558872,"Floor 1, 113 Princess Road",Manchester,M14 4RB,69201,Manchester,69201,53.455624,-2.244766
PLAN PRACTICE LTD,07028493,14 Doncaster Avenue,Manchester,M20 1GJ,"69201, 69202, 69203, 70229",Manchester,69201,53.439188,-2.237717
STAAN LTD,11634910,21 The Residences Scholes Lane,Manchester,M25 0NT,"69201, 70221",Manchester,69201,53.525846,-2.271598
CALCULUS ACCOUNTANTS LIMITED,06963258,38 Wardley Hall Lane,Manchester,M28 2RL,69201,Manchester,69201,53.512365,-2.374098
INTERNATIONAL FOOTBALL CONNECTIONS LIMITED,07061380,50 Granby Row,Manchester,M1 7AY,"69201, 93199",Manchester,69201,53.475171,-2.236787
R P FINANCIAL LIMITED,05182404,"176 Monton Road, Monton  Eccles",Lancashire,M30 9GA,"69201, 69202, 69203",Manchester,69201,53.490998,-2.351061
AMEL (UK) LIMITED,04184779,54 Parkstone Avenue,Manchester,M45 7QH,69201,Manchester,69201,53.538972,-2.307382
PARKER WHITWOOD LIMITED,10637428,Old Lloyds Chambers,Altrincham,WA14 5NS,"69201, 69202",Manchester,69201,53.399067,-2.352666
XEINADIN NORTH WEST LIMITED,11415125,Xeinadin Manchester,Manchester,M2 3BD,69201,Manchester,69201,53.475731,-2.244353
PRIME SERVICES MANCHESTER LTD,10749205,28 Sumner Road,Manchester,M6 7GJ,"69201, 69202",Manchester,69201,53.498466,-2.309412
CGY PRIVATE HEALTH HOLDING LTD.,14155323,Enterprise House,Oldham,OL9 6HZ,"62012, 69201, 71129, 86900",Manchester,69201,53.537942,-2.128092
EMJAYDEE LIMITED,12149754,8 Burnfield Road,Manchester,M18 7WE,69201,Manchester,69201,53.453639,-2.171719
FORENSICA LTD.,09743661,162 Walkden Road,Manchester,M28 7DP,69201,Manchester,69201,53.519034,-2.396418
V PAY LIMITED,11878941,Unit 1 564 Manchester Road,Bradford,BD5 7LR,69201,Manchester,69201,53.780765,-1.760025
ATKINS FLYNN LTD,09681598,11 Sledmoor Road,Manchester,M23 0NU,69201,Manchester,69201,53.408904,-2.291523
SYNTHESIS ADVISERS LIMITED,14119953,5 Kelvin Street,Manchester,M4 1ET,"69201, 69202",Manchester,69201,53.483692,-2.236909
KM BUSINESS SOLUTIONS LIMITED,03901337,"1st Floor, Block C The Wharf",Burnley,BB11 1JG,69201,Manchester,69201,53.786933,-2.246739
HADDISON & CO ACCOUNTANTS LTD,09050014,Suite 114 109 Portland Street,Manchester,M1 6DN,"69201, 69202, 69203, 70229",Manchester,69201,53.477006,-2.240594
FIRST OPTION ACCOUNTING LIMITED,08659250,"Suite 2,Parkway 5, 300 Princess Road",Manchester,M14 7HR,"69201, 69202, 69203",Manchester,69201,53.44852,-2.245915
JIAN & CO ACCOUNTANCY LTD,11260970,2nd Floor 16 Nicholas Street,Manchester,M1 4EJ,69201,Manchester,69201,53.478346,-2.240225
AA&H ACCOUNTING LTD,14531307,Office 4 Midway Business Centre,Manchester,M12 4QN,"69201, 69202",Manchester,69201,53.449248,-2.191893
CHITTENDENS (MANCHESTER) LIMITED,04725361,435 Chester Road,Manchester,M16 9HA,69201,Manchester,69201,53.465156,-2.267897
TFD DUNHAMS LTD,03152762,11 Warwick Road,Manchester,M16 0QQ,69201,Manchester,69201,53.459459,-2.286462
LOG JUMP LIMITED,10713965,37 Crompton Road,Manchester,M19 2QJ,"59111, 59113, 69201, 69202",Manchester,69201,53.437898,-2.195936
RUOCCS FINANCE & ACCOUNTING LIMITED,10979921,37 Cornhill Road,Manchester,M41 5TJ,69201,Manchester,69201,53.4553,-2.364335
AZAM & CO ACCOUNTANTS LIMITED,08308276,141 Cheetham Hill Road,Manchester,M8 8LY,"69201, 69202, 69203",Manchester,69201,53.494913,-2.239459
AT NORTH LIMITED,14857985,10 Finsbury Court,Bolton,BL1 8XP,"69201, 69202",Manchester,69201,53.595269,-2.416109
BHANDARI & CO. (ACCOUNTANTS) LIMITED,07273467,Ist Floor Lord House,Manchester,M3 1HE,"69201, 69202, 69203",Manchester,69201,53.491834,-2.241989
MONTROGUE LIMITED,14470597,Picadilly Business Centre,Manchester,M12 6AE,"69201, 69203, 70229",Manchester,69201,53.47621,-2.219903
MGL  LIMITED,04797083,"8 Queen Anne Drive, Worsley",Greater Manchester,M28 1ZF,69201,Manchester,69201,53.50795,-2.415434
WATERMARK ACCOUNTANTS LTD,10416001,319 Dickenson Road,Manchester,M13 0NR,69201,Manchester,69201,53.455727,-2.203895
OAKLAND ACCOUNTANTS LTD,10629452,69 Broad Oak Lane,Manchester,M20 5QB,69201,Manchester,69201,53.402544,-2.227511
LANE TAX AND ACCOUNTING LTD,13159397,"1103, 21, Britton House Lord Street",Manchester,M4 4FQ,69201,Manchester,69201,53.491218,-2.239694
CAIRNVALE LTD,04498071,9 Winchester Avenue,Manchester,M25 0LJ,69201,Manchester,69201,53.519633,-2.268587
FAR CONSULTING LIMITED,05563265,378-380 Deansgate,Manchester,M3 4LY,69201,Manchester,69201,53.474988,-2.251792
S A ACCOUNTANCY SERVICES LTD,12367405,8 Park Place,Manchester,M4 4EY,69201,Manchester,69201,53.490756,-2.241907
GATEWAYZ CONSULTANCY LTD,14848178,"Cordinal House,  First Floor",Manchester,M3 2LY,"62090, 69201, 74909, 82990",Manchester,69201,53.482551,-2.249636
ACCOUNT-I LIMITED,14305313,86 Bury Old Road,Manchester,M8 5BW,"69201, 69202, 69203",Manchester,69201,53.514296,-2.246535
SIMPLE TAXES LTD,14300948,Piccadilly Business Centre,Manchester,M12 6AE,"69201, 69202, 69203",Manchester,69201,53.47621,-2.219903
J&P TAX AND ACCOUNTING SERVICES LTD,13009959,36 Falls Green Avenue,Manchester,M40 2BL,69201,Manchester,69201,53.503032,-2.188246
ELITE ACCOUNTAX LTD,10491786,66 Seymour Grove,Manchester,M16 0LN,"69201, 69202, 69203",Manchester,69201,53.459403,-2.27607
LEGACC LIMITED,12756186,3.6 Universal Square Business Centre,Manchester,M12 6JH,"69109, 69201, 69202, 69203",Manchester,69201,53.470728,-2.214271
TOTAL ENTERPRISE SUPPORT LIMITED,11066164,7 Mossbrook Drive,Manchester,M38 9TJ,"69201, 69202, 69203, 70229",Manchester,69201,53.5382,-2.432206
FINANCE CONSULTANCY LIMITED,11324715,Mansion House,Altrincham,WA14 4RW,69201,Manchester,69201,53.397888,-2.353017
ISLAM & AHMED LTD,05728514,68 Seymour Grove,Manchester,M16 0LN,69201,Manchester,69201,53.459403,-2.27607
XPATLINK ACCOUNTANTS LIMITED,07950858,91 Princess Street,Manchester,M1 4HT,"64304, 69201, 69202, 69203",Manchester,69201,53.477977,-2.240599
EPSTEIN AUDIT AND CONSULTANCY LIMITED,13089728,"Suite 5, 4th Floor 3 Universal Square",Manchester,M12 6JH,69201,Manchester,69201,53.470728,-2.214271
ZAS ACCOUNTANTS LTD,14945918,"24, Sol House Dark Lane",Manchester,M12 6FA,"69201, 69203",Manchester,69201,53.474566,-2.219458
ZAS FINANCIALS LIMITED,14102625,"24, Sol House Dark Lane",Manchester,M12 6FA,"66210, 69201, 70221, 70229",Manchester,69201,53.474566,-2.219458
BAMFORD BOOK KEEPING SERVICES LTD,13920524,4 Castle Hill Road,Manchester,M25 0FR,"69201, 69202",Manchester,69201,53.521021,-2.258641
PEAK BUSINESS ADVISORS LIMITED,05734605,119 Manchester Road,High Peak,SK23 9TN,69201,Manchester,69201,53.319928,-1.929075
"PARKERS ACCOUNTANTS, TAX & VAT CONSULTANTS LIMITED",09184840,114 Hart Road,Manchester,M14 7DW,69201,Manchester,69201,53.443728,-2.228558
NEXUS CONTRACTOR ACCOUNTING LTD,11297105,Greengate Business Centre 2 Greengate Street,Greater Manchester,OL4 1FN,69201,Manchester,69201,53.540676,-2.097619
ARCCA LTD,05568068,66 Seymour Grove,Manchester,M16 0LN,"69201, 69202, 69203",Manchester,69201,53.459403,-2.27607
RYAN ANTHONY SERVICES LIMITED,03684684,26 Wilton Avenue,Lancashire,M16 0JH,69201,Manchester,69201,53.453835,-2.285325
ATID LTD,06463926,Flat 7 Woodcliffe Lodge Sedgley Park Road,Manchester,M25 0JX,69201,Manchester,69201,53.521906,-2.272734
ECOTAX LTD,10554019,Suite # 2 435 Cheetham Hill Road,Manchester,M8 0PF,69201,Manchester,69201,53.506168,-2.238678
FORTH ASSOCIATES LIMITED,04308770,Frenkel House,Salford,M50 2ZY,69201,Manchester,69201,53.47973,-2.296845
GN 4 BUSINESS SOLUTIONS LIMITED,04903227,349 Bury Old Rd,Manchester,M25 1PY,"63110, 69201, 69202, 82110",Manchester,69201,53.534993,-2.26885
NL FINANCE LIMITED,11695716,"Office5, 131a Bury New Road",Manchester,M25 9NX,"66220, 69201, 74300",Manchester,69201,53.523677,-2.276848
ASK ADVISORS LTD,15966666,2 Kempton Road,Manchester,M19 2GJ,"69201, 69203",Manchester,69201,53.438804,-2.19716
HAWKER ACCOUNTING SOLUTIONS LIMITED,10957028,103 Wyre Drive,Manchester,M28 1HN,"69201, 69202",Manchester,69201,53.506645,-2.413567
ALKER ELLIOTT ACCOUNTANTS LIMITED,15162635,29 Greylag Crescent,Manchester,M28 7AB,"69201, 69202",Manchester,69201,53.510937,-2.39871
WW CHAN ACCOUNTANCY LIMITED,09473509,International House,Manchester,M2 3HZ,"69201, 69202",Manchester,69201,53.479531,-2.240789
GLICKSMAN CANTOR ASSOCIATES LIMITED,03937660,96 Scholes Lane,Manchester,M25 0AU,"69201, 69202, 69203",Manchester,69201,53.524509,-2.266611
FIRST CHOICE ACCOUNTANTS LTD,09034796,Universal Square,Manchester,M12 6JH,"69201, 69202, 69203",Manchester,69201,53.470728,-2.214271
VR ACCOUNTANCY LTD,11844553,207 Liverpool Road,Manchester,M44 6DA,"69201, 69202",Manchester,69201,53.447215,-2.420246
RIAZ AHMAD & CO LIMITED,08790753,Lord House,Manchester,M3 1HE,69201,Manchester,69201,53.491834,-2.241989
ENSO ACCOUNTANTS LIMITED,11179376,189c Mauldeth Road,Manchester,M19 1BA,69201,Manchester,69201,53.432843,-2.208827
ARC 88 LIMITED,15120527,Unit 4 Beacon Road,Manchester,M17 1AF,69201,Manchester,69201,53.472379,-2.343119
MCC ACCOUNTANTS LTD,07059338,18 Woodstock Drive,Manchester,M28 2WW,69201,Manchester,69201,53.501538,-2.375721
VICTOR CHANCE LIMITED,07614865,1 Blueberry Avenue,Manchester,M40 0GE,"69201, 69203, 74909",Manchester,69201,53.520598,-2.174599
SMART CITY ACCOUNTANTS LIMITED,11129917,"Room 18, First Floor",Manchester,M8 8HW,69201,Manchester,69201,53.494869,-2.243649
OPTIMUM ACCOUNTING AND BUSINESS SOLUTIONS LTD,14250257,2 Falcon Avenue,Manchester,M41 9AR,69201,Manchester,69201,53.447787,-2.345917
CLOUD ACCOUNTANCY (WHITEFIELD) LTD,11560135,151b Bury New Road,Manchester,M45 6AA,"69201, 69202, 69203",Manchester,69201,53.5455,-2.291961
ROYCE PEELING GREEN LIMITED,04816267,The Copper Room Deva City Office Park,Manchester,M3 7BG,69201,Manchester,69201,53.484305,-2.253504
CHEUNG & CO ACCOUNTANTS LTD,10244675,15 Oldham Road,Manchester,M4 5EQ,69201,Manchester,69201,53.485264,-2.232804
DIDSBURY ACCOUNTANTS LIMITED,07701886,6 Fortuneswell Court,Manchester,M20 6LS,"69201, 69202",Manchester,69201,53.419309,-2.231241
QUARTZ ACCOUNTANTS LIMITED,14212458,4 Mellowstone Drive,Manchester,M21 7RJ,69201,Manchester,69201,53.440392,-2.247118
ACCOUNTANT4EVERY1 LTD,12878532,22 Yarburgh Street,Manchester,M16 7FJ,69201,Manchester,69201,53.453614,-2.256019
ROYSTON & ASSOCIATES LIMITED,13879276,The Point,Manchester,M8 8LG,"41201, 41202, 47190, 69201",Manchester,69201,53.496551,-2.238413
DUKE FINANCIAL MANAGEMENT LTD,11099768,19 Parrs Wood Avenue,Manchester,M20 5WB,"69201, 70221",Manchester,69201,53.411786,-2.221888
D K TSE LTD,13140455,300 Mauldeth Road,Manchester,M19 1DZ,69201,Manchester,69201,53.424478,-2.201834
LEVEL UP ACCOUNTING LTD,13160473,15 Combermere Close,Manchester,M29 8TB,"69201, 69202",Manchester,69201,53.515355,-2.460236
BDS ACCOUNTS LTD,09246509,103 Hazelhurst Road,Manchester,M28 2SW,69201,Manchester,69201,53.506321,-2.363521
A.Q. ACCOUNTANTS (M/C) LIMITED,07426047,189 Seymour Grove,Manchester,M16 0FJ,69201,Manchester,69201,53.456198,-2.274001
M&M BUSINESS AND ACCOUNTING ADVICE LTD,13448156,7 Freshpool Way,Manchester,M22 4UB,69201,Manchester,69201,53.395036,-2.255277
CWP ACCOUNTANTS LTD,11062295,Chambers Unit1a,Manchester,M3 7NA,"69201, 69203",Manchester,69201,53.487423,-2.249454
AUDIO FINANCE LIMITED,12465484,27 Croasdale Avenue,Manchester,M14 6GU,"69201, 70229",Manchester,69201,53.442016,-2.230326
MANCHESTER ACCOUNTING SERVICES LTD.,11186966,28 Putney Close,Oldham,OL1 2JS,"69201, 69202",Manchester,69201,53.553815,-2.118977
MTP MEDACC LTD,07400541,448 Palatine Road,Manchester,M22 4JT,"69201, 86900",Manchester,69201,53.407007,-2.260568
THE MASTERS ACCOUNTANTS LTD,12572792,58a Bury Old Road,Manchester,M8 5BL,"69201, 69202, 69203",Manchester,69201,,
ELB ACCOUNTANTS LIMITED,08965830,11 Elsdon Drive Atherton,Manchester,M46 9GX,69201,Manchester,69201,53.530605,-2.481522
ARCHWOOD ACCOUNTANTS LIMITED,05409126,46-48 Long Street,Manchester,M24 6UQ,69201,Manchester,69201,53.551664,-2.196462
J & P ACCOUNTANCY LIMITED,11381421,2nd Floor 16 Nicolas Street,Manchester,M1 4EJ,"69201, 69202",Manchester,69201,53.478346,-2.240225
TAX & ACCOUNTS ADVICE UN LIMITED,06006389,Harewood House 2-6 Rochdale Road,Manchester,M24 6DP,"69201, 69202, 69203",Manchester,69201,53.555241,-2.196645
JP GALLAGHER & CO LTD,13236446,106 Moston Lane East,Manchester,M40 3QL,69201,Manchester,69201,53.516995,-2.160921
WONG & YIP ACCOUNTANTS LIMITED,14717096,"Jactin House, 24 Hood Street",Manchester,M4 6WX,"69201, 69202",Manchester,69201,53.484202,-2.228549
ALLIED ACCOUNTANTS LTD,13259980,Casablanca Mill,"Salford, Manchester",M3 7LF,69201,Manchester,69201,53.491256,-2.252084
HOLIDAY GORDON LIMITED,04102360,Western House,Flixton,M41 6LF,69201,Manchester,69201,53.445109,-2.3865
121 CASHIERS LIMITED,16064974,"First Floor, Swan Buildings",Manchester,M4 5JW,"69201, 82990",Manchester,69201,53.485461,-2.233302
G&M BOOKKEEPING & ACCOUNTING LTD,15218032,31 Lentworth Drive,Worsley,M28 3EX,"69201, 69202",Manchester,69201,53.536317,-2.402343
GA CORPORATE CONSULTING LIMITED,08403823,286 Moston Lane,Manchester,M40 9WB,"69201, 69202, 69203",Manchester,69201,53.513811,-2.197779
GRIDLINES GROUP LTD,11085581,3rd Floor 82 King Street,Manchester,M2 4WQ,"64205, 69201, 70221, 70229",Manchester,69201,53.480793,-2.243719
BUSINESS DEVELOPMENT SERVICES (PRESTON) LTD,05866341,103 Hazelhurst Road,Manchester,M28 2SW,69201,Manchester,69201,53.506321,-2.363521
FULLERTONS LIMITED,06603861,Manchester House 50a Oxford Road,Leeds,LS20 8AB,69201,Manchester,69201,53.874162,-1.712708
YF ACCOUNTING LTD,15362520,19 Standmoor Road,Manchester,M45 7PJ,69201,Manchester,69201,53.544224,-2.306484
WRC ACCOUNTING LIMITED,13099514,Parkgates Bury New Road,Manchester,M25 0JW,69201,Manchester,69201,53.520594,-2.272559
HOWE BRIDGE CONSULTING LTD,11858740,Bartle House,Manchester,M2 3WQ,69201,Manchester,69201,53.476469,-2.243906
U&W LIMITED,11915558,452 Manchester Road,Stockport,SK4 5DL,69201,Manchester,69201,53.429585,-2.177868
MWA ACCOUNTING LIMITED,08931300,1b Blackfriars House,Manchester,M3 2JA,69201,Manchester,69201,53.483391,-2.247863
GLOB PRO SOLUTIONS LTD,16149796,10 Brightside Road,Manchester,M8 5XJ,"01610, 62020, 69201",Manchester,69201,53.514365,-2.225077
SYED BILAL FARHAN LIMITED,16151132,1b First Floor,Wilmslow Manchester,SK9 3HQ,"69201, 69202",Manchester,69201,53.349883,-2.216218
JRCA LIMITED,07759489,Barnfield House,Manchester,M3 7BX,69201,Manchester,69201,53.485167,-2.249471
JACK ROSS LIMITED,05774612,Barnfield House Salford Approach,Salford,M3 7BX,69201,Manchester,69201,53.485167,-2.249471
S&L BUSINESS CONSULTANCY LTD,11986530,15 Oldham Road,Manchester,M4 5EQ,69201,Manchester,69201,53.485264,-2.232804
CLEAR PROBATE LIMITED,12541402,590 Manchester Old Road,Manchester,M24 4PW,69201,Manchester,69201,53.54411,-2.223907
GAZZARD ACCOUNTS LTD,07587743,33 Acresfield Road,Manchester,M24 2WT,69201,Manchester,69201,53.5618,-2.180868
RADCLYFFE ACCOUNTANCY SERVICES LTD,13994232,207 Foxdenton Lane,Middleton,M24 1QN,69201,Manchester,69201,53.539664,-2.160418
LUCAS WHITE PAYROLL SERVICES LTD,11889108,250 Church Road,Manchester,M41 6HD,69201,Manchester,69201,53.443021,-2.367573
C K WONG & CO LIMITED,07993849,Ckw Chartered Certified Accountants,Manchester,M19 1NR,"69201, 69202, 69203",Manchester,69201,53.421447,-2.212654
4291 LIMITED,07892830,35 Highbury Avenue,Manchester,M44 6BU,69201,Manchester,69201,53.444137,-2.41874
GCC ACCOUNTANTS LTD,10653583,Cariocca Business Park Unit 67,Manchester,M40 8BB,"69201, 69202, 69203, 82990",Manchester,69201,53.491602,-2.212778
ELVER CONSULTANCY LIMITED,06235994,Suite 312 Atlas House Caxton Close,Wigan,WN3 6XU,"69201, 69202, 69203",Manchester,69201,53.518336,-2.653362
MEDLOCK ACCOUNTING SOLUTIONS LIMITED,10076344,41 Medlock Road,Manchester,M35 9WW,"69201, 69202",Manchester,69201,53.503056,-2.137712
PROUD GOULBOURN ACCOUNTANTS LIMITED,04707069,"Office 16, Hamilton Davies House 117c Liverpool Road",Manchester,M44 5BG,69201,Manchester,69201,53.428548,-2.434946
BERKLEY HEATH LTD,13952879,2 Redstone Road,Manchester,M19 1RB,"69201, 69203",Manchester,69201,53.416869,-2.214602
ADELIE SERVICES LTD,06915797,52 Riverton Road,Manchester,M20 5GH,69201,Manchester,69201,53.402561,-2.23282
SA ACCOUNTING LTD,08012031,S A Accounting Ltd 17 Sandringham Grange,Manchester,M25 0BY,69201,Manchester,69201,53.526467,-2.255024
CUBE ACCOUNTANTS LIMITED,09408587,First Floor,Manchester,M14 7HR,69201,Manchester,69201,53.44852,-2.245915
AZEEM ACCOUNTANTS LTD,09488925,562-564 Manchester Road,Bradford,BD5 7LR,69201,Manchester,69201,53.780765,-1.760025
REHMAN & CO. LIMITED,06550727,66 Seymour Grove,Manchester,M16 0LN,"69201, 69203",Manchester,69201,53.459403,-2.27607
TIDY TAX LIMITED,07778226,66a Spotland Road,Rochdale,OL12 6PQ,"69201, 69202, 69203",Manchester,69201,53.619905,-2.165546
AVELLION LIMITED,11880171,918 7 Symphony Park,Manchester,M1 7GE,"64999, 69201, 69202, 96090",Manchester,69201,53.47336,-2.239187
GRACIA LIVING LIMITED,09442356,261 Bolton Road,Bury,BL8 2NZ,69201,Manchester,69201,53.589062,-2.318306
DAVID NUGENT & CO LIMITED,06501557,The Counting House 4a Moss Lane,Manchester,M27 9SA,69201,Manchester,69201,53.517657,-2.3511
P&L ACCOUNTS LTD,13309398,340 Norris Road,Sale,M33 2UA,69201,Manchester,69201,53.414695,-2.297777
HOSSAIN MOOREHEAD LTD,08109107,20 Chorlton Road,Manchester,M15 4LL,69201,Manchester,69201,53.465492,-2.258154
HUTTON PIKE LIMITED,13732757,Office 4 41 - 43 Liverpool Road,Manchester,M44 5BQ,"69201, 69203",Manchester,69201,53.430908,-2.43342
NEXT GENERATION ACCOUNTANTS LTD,16370580,41 Five Quarters,Manchester,M26 3NU,69201,Manchester,69201,53.5693,-2.346168
BROOKES GLOBAL LTD,13387223,90 Kershaw Lane,Manchester,M34 5SQ,"69201, 69202, 69203, 70229",Manchester,69201,53.479445,-2.136324
NUMERICA ACCOUNTANTS LTD,15607802,76 Northleigh Road,Manchester,M16 0EQ,"69201, 69202, 69203, 70221",Manchester,69201,53.452945,-2.277639
123 ACCOUNTING SOLUTIONS LIMITED,06722105,Piccadilly Business Centre Unit C,Manchester,M12 6AE,69201,Manchester,69201,53.47621,-2.219903
STELLAR ACCOUNTANCY LIMITED,12590208,Piccadilly Business Centre Unit C Aldow Enterprise Park,Manchester,M12 6AE,"69201, 70221, 70229",Manchester,69201,53.47621,-2.219903
BTMR LIMITED,07598055,Century Buildings,Manchester,M3 2DF,69201,Manchester,69201,53.482876,-2.249141
TREE ACCOUNTANCY LIMITED,06869544,3rd Floor Eastgate,Castlefield,M3 4LZ,69201,Manchester,69201,53.474461,-2.254742
E & B ROYDE LIMITED,12362888,2nd Floor Parkgates Bury New Road,Manchester,M25 0TL,"69201, 82110, 82990",Manchester,69201,53.520478,-2.272468
LUMBVIEW ACCOUNTS LIMITED,08470858,Grosvenor House Downcast Way,Manchester,M27 8UW,"69201, 69202, 69203",Manchester,69201,53.510339,-2.302471
BOYCE & COMPANY LIMITED,03541650,6 Bexley Square,Manchester,M3 6BZ,"69201, 69203",Manchester,69201,53.483638,-2.258805
ROCA ACCOUNTANTS LIMITED,13889848,"C/O Roca Accountants Limited Floor 4, Centenary House",Manchester,M50 1RF,69201,Manchester,69201,53.481737,-2.32677
EASY TAX AND FINANCE LTD,16195558,777 Stockport Road,Manchester,M19 3DL,69201,Manchester,69201,53.446832,-2.191009
SIDDIQUI ACCOUNTANCY SERVICES LTD,08553207,1 Cragie Street,Manchester,M8 8GA,"69201, 69202, 69203",Manchester,69201,53.497638,-2.247494
MAXWELL MILLINGTON & CO LTD,12424618,"Office 1, 1st Floor 41-43 Liverpool Road",Manchester,M44 5BQ,"69201, 69202",Manchester,69201,53.430908,-2.43342
XVARO ACCOUNTING LTD,15408910,309 The Mill South Hall Street,Salford,M5 4JH,69201,Manchester,69201,53.473576,-2.264741
AMAI ADVISORY LIMITED,16230783,189c Mauldeth Road,Manchester,M19 1BA,"62020, 69201",Manchester,69201,53.432843,-2.208827
S.W. ACCOUNTANCY (MANCHESTER) LIMITED,08807027,23 Thornlea,Manchester,M43 6WZ,69201,Manchester,69201,53.482098,-2.163999
AMHCA LTD,14854957,1 Morland Road,Manchester,M16 9WZ,69201,Manchester,69201,53.456818,-2.270195
J A GUEST LIMITED,07549615,91 Princess Street,Manchester,M1 4HT,"69201, 69202",Manchester,69201,53.477977,-2.240599
JHP ACCOUNTING CONSULTANCY LTD,16262362,82 Catterick Road,Manchester,M20 6GF,69201,Manchester,69201,53.419374,-2.220934
SALFORD TAX SPECIALISTS LTD,10689827,"Building 2, Imperial Court",Salford,M5 3EB,69201,Manchester,69201,53.466406,-2.283255
MH ACCOUNTANT LTD,10572322,147 Dickenson Road,Manchester,M14 5HZ,"69201, 69203, 70221, 70229",Manchester,69201,53.453733,-2.213192
SIAN LUND ACCOUNTANCY AND BUSINESS SERVICES LTD,15440419,1 Lapwing Close,Stalybridge,SK15 1HP,"69201, 69202",Manchester,69201,53.496247,-2.055009
SAGHIR AHMAD & COMPANY LIMITED,11806216,"2nd Floor, 33 Bent Street",Manchester,M8 8NW,69201,Manchester,69201,53.49673,-2.239107
NURBHAI AND CO LIMITED,16281795,189 Mauldeth Road,Manchester,M19 1BA,69201,Manchester,69201,53.432843,-2.208827
POUNDS & PENNIES LIMITED,08408819,Stanmore House,Radcliffe,M26 2JS,69201,Manchester,69201,53.561739,-2.327551
WD ACCOUNTANTS LTD,09023977,Unit B2 Office New Smithfield Market,Manchester,M11 2WJ,69201,Manchester,69201,53.47151,-2.176296
ACCOUNTANTS ONLINE LIMITED,15495516,"Unit C Aldow Enterprise Park, Blackett Street",Manchester,M12 6AE,69201,Manchester,69201,53.47621,-2.219903
CJ BOOKKEEPING AND ACCOUNTING SERVICES LTD,15592293,Bartle House,Manchester,M2 3WQ,"69201, 69202",Manchester,69201,53.476469,-2.243906
CHAMPION BUSINESS SOLUTIONS LIMITED,04721869,"1 Worsley Court, High Street",Manchester,M28 3NJ,69201,Manchester,69201,53.524208,-2.400162
XEINADIN NORTH LIMITED,11404925,100 Barbirolli Square,Manchester,M2 3BD,69201,Manchester,69201,53.475731,-2.244353
AK BUSINESS CONSULTING LTD,12052064,86 Amesbury Road,Manchester,M9 6JF,"69201, 69202, 70221, 70229",Manchester,69201,53.528943,-2.205936
CO-GENCY CORPORATE FINANCE LIMITED,09415193,2nd Floor Lowry Mill Lees Street,Manchester,M27 6DB,69201,Manchester,69201,53.517927,-2.335734
AFROLEKTRONIK MANAGEMENT LTD,15537661,24 Athol Road,Manchester,M16 8QN,"59200, 69201, 90010, 90020",Manchester,69201,53.441742,-2.250573
OPAL CONSULTANTS LIMITED,16360518,37 Worsley Road North,Manchester,M28 3GB,69201,Manchester,69201,53.532439,-2.400812
MCG ACCOUNTANTS LIMITED,15985102,247 Bury Old Road,Manchester,M25 1JE,"69201, 69202",Manchester,69201,53.530954,-2.26641
TAXNOLOGY SOLUTIONS LIMITED,16542628,180 Brailsford Road,Manchester,M14 6QA,"62020, 69201, 69202, 82990",Manchester,69201,53.440963,-2.206519
ASCENDIA GROUP LIMITED,15785608,355a Wilmslow Road,Manchester,M14 6XU,"62012, 69201",Manchester,69201,53.439906,-2.219475
INSIGHT (WHITEFIELD) LIMITED,11386648,20 Hillingdon Road,Manchester,M45 7QN,"62020, 69201, 70221",Manchester,69201,53.541976,-2.310377
HMS ACCOUNTANCY LIMITED,15678959,4 Rutland Avenue,Manchester,M16 0JF,"69201, 69202, 69203",Manchester,69201,53.45362,-2.285173
TAX STRATEGIES LTD,16188338,"Sun House,",Manchester,M15 4PS,69201,Manchester,69201,53.473687,-2.25076
CERTIS (YORKSHIRE) ACCOUNTANTS LTD,08873969,Apartment 20 Piccadily Loft,Manchester,M1 2PE,"69201, 69202",Manchester,69201,53.480078,-2.232474
BIRCHALL AND CO LIMITED,08512320,42 Church Street,Leigh,WN7 1AZ,69201,Manchester,69201,53.497724,-2.513846
ACCUTAX ADVISORS LTD,16209826,6 Crossdale Road,Manchester,M9 6JS,"69201, 69202, 69203",Manchester,69201,53.52988,-2.204899
ALQAESI & CO LIMITED,04645729,1037 Stockport Road,Manchester,M19 2TB,69201,Manchester,69201,53.439737,-2.187168
L C RISK MANAGEMENT LTD,06892677,Riverside House,Manchester,M3 5EN,69201,Manchester,69201,53.480686,-2.256406
SIMPLY PAYROLL SERVICES LIMITED,12560906,Suite 6 Ellesmere House 1 Pennington Street,Manchester,M28 3LR,69201,Manchester,69201,53.522935,-2.391115
HARI ACCOUNTANTS LTD,15389138,Piccadilly Business Centre Unit C Aldow Enterprise Park,Manchester,M12 6AE,"69201, 69202, 69203, 70229",Manchester,69201,53.47621,-2.219903
MNSJ ACCOUNTANTS LTD,15159702,226 Wilmslow Road,Manchester,M14 6LE,69201,Manchester,69201,53.443899,-2.218743
CLARE SMITH ACCOUNTANCY LTD,06741234,369 Grimshaw Lane,Manchester,M24 1GQ,"69201, 69202",Manchester,69201,53.540442,-2.170018
360 FORENSIC LIMITED,09754624,3 Archway,Manchester,M15 5QJ,69201,Manchester,69201,53.462893,-2.246088
ACCOUNTANCY MADE EASY ( P/WICH) LTD,10280202,151b Bury New Road,Manchester,M45 6AA,69201,Manchester,69201,53.5455,-2.291961
MDAL LIMITED,14304789,8 Burnfield Road,Manchester,M18 7WE,69201,Manchester,69201,53.453639,-2.171719
YAZ FOR ACCOUNTING AND BOOKKEEPING LTD,15653422,Mayfair House 3 Elm Grove,Manchester,M20 6PL,"69201, 69202",Manchester,69201,53.416181,-2.231164
AF ADVISORY LTD,16485287,293 Withington Road,Manchester,M21 0YA,"62020, 69201, 69202, 70221",Manchester,69201,53.440298,-2.257414
VITAL SIGNS ACCOUNTANTS LTD,10634430,"Suite 6 The Point, 173-175 Cheetham Hill Road",Manchester,M8 8LG,69201,Manchester,69201,53.496551,-2.238413
TARPON LIMITED,08213447,Piccadilly Business Centre Unit C Aldow Enterprise Park,Manchester,M12 6AE,69201,Manchester,69201,53.47621,-2.219903
ADVISE ASSIST AVOID ACCOUNTANTS LTD,15604092,"Piccadilly Business Centre Unit C, Aldow Enterprise Park",Manchester,M12 6AE,"69201, 69202",Manchester,69201,53.47621,-2.219903
FIDRELIS GROUP LIMITED,16439882,16 Holland Street,Manchester,M34 3PY,"69201, 69202, 69203, 81210",Manchester,69201,53.456927,-2.121358
ALEPH BUSINESS SOLUTIONS UK LTD,16438103,Bartle House,Manchester,M2 3WQ,"62020, 69201",Manchester,69201,53.476469,-2.243906
KAYS ACCOUNTANTS LTD,06808167,New Maxdov House 130 Bury New Road,Manchester,M25 0AA,69201,Manchester,69201,53.523598,-2.275912
VICRIS CONSULT LTD,15627792,28 Brade Close,Manchester,M11 2ZN,"69201, 70229",Manchester,69201,53.475502,-2.175575
SK TAX LTD,16452859,86 Bury Old Road,Manchester,M8 5BW,"69201, 69202, 78300",Manchester,69201,53.514296,-2.246535
CLARITAX TRUSTEES LTD,13688519,"Office 9, Unit B",Manchester,M40 5AG,69201,Manchester,69201,53.504502,-2.196515
JC29 CONSULTANCY LTD,16459456,222 Manchester Road,Stockport,SK4 1NN,69201,Manchester,69201,53.421962,-2.165964
ROY & CO (MISC) LTD,16463472,139 Wilbraham Road,Manchester,M14 7DS,69201,Manchester,69201,53.443448,-2.233932
CA ACCOUNTANTS LTD,16433107,6 Hambridge Close,Manchester,M8 0PH,"69201, 69202, 69203, 70229",Manchester,69201,53.505651,-2.236474
SMARTBOOKSCO. LTD,16469621,65 Drake Hall,Westhoughton,BL5 2RA,"69201, 69202, 82110, 82990",Manchester,69201,53.534273,-2.528049
BRIDGEWATER COSTS LTD,15958430,"Gateway House, Suite 3.5",Manchester,M22 5WY,"69102, 69201",Manchester,69201,53.364776,-2.240352
LEE & CO ACCOUNTANTS LTD,16653518,Lee House,Manchester,M4 6AG,69201,Manchester,69201,53.486595,-2.227642
RWC GLOBAL LIMITED,08210109,Mansion House,Altrincham,WA14 4RW,"69201, 70229",Manchester,69201,53.397888,-2.353017
TAYLOR EVANS LIMITED,09971243,Swan Buildings First Floor,Manchester,M4 5JW,69201,Manchester,69201,53.485461,-2.233302
INGRAM K LTD,15263546,4 Crawford Street,Manchester,M30 9PQ,69201,Manchester,69201,53.490222,-2.352004
KLAIR ACCOUNTAX LTD,07894774,Unit 7 Wilson Business Park,Manchester,M40 8WN,"69201, 69202, 69203",Manchester,69201,53.499615,-2.205552
POMEGRANATE CONSULTING LIMITED,08105664,"C/O Pomegranate, 3 Hardman Square",Manchester,M3 3EB,69201,Manchester,69201,53.479607,-2.252211
AMS ACCOUNTS (MCR) LIMITED,07662746,1 Hardman Street,Manchester,M3 3HF,69201,Manchester,69201,53.47988,-2.250781
MTP ADVISORY SERVICES LIMITED,15538154,First Floor Swan Buildings,Manchester,M4 5JW,69201,Manchester,69201,53.485461,-2.233302
YU ACCOUNTANTS LIMITED,16624206,76 Hamilton Road,Manchester,M13 0PJ,69201,Manchester,69201,53.452866,-2.200237
VERTO ACCOUNTS LTD,16331923,Peter House,Manchester,M1 5AN,"69201, 82990",Manchester,69201,53.477108,-2.243683
DY ACCOUNTANCY LTD,16629542,175 St James Tower 7 Charlotte Street,Manchester,M1 4DZ,"69201, 69202",Manchester,69201,53.479355,-2.239326
THE ACCOUNTING BUBBLE LTD,12083978,Piccadilly Business Centre Unit C Aldow Enterprise Park,Manchester,M12 6AE,"69201, 69202",Manchester,69201,53.47621,-2.219903
LOYALTY ACCOUNTANTS LIMITED,16727489,Bartle House,Manchester,M2 3WQ,"69201, 69202, 69203",Manchester,69201,53.476469,-2.243906
AJ & H LTD,13968807,Mansion House,Altrincham,WA14 4RW,"69201, 70221, 70229",Manchester,69201,53.397888,-2.353017
FERNDALE ACCOUNTANCY CONSULTING LTD,15453584,16a Hesketh Avenue,Manchester,M20 2QW,69201,Manchester,69201,53.418505,-2.237632
FCBB2 LIMITED,10590069,"C/O Co-Gency Corporate Finance Limited 2nd Floor, Lowry Mill",Swinton,M27 6DB,69201,Manchester,69201,53.517927,-2.335734
TURNER PERFORMANCE ENGINEERING LIMITED,16742250,Mansion House,Altrincham,WA14 4RW,69201,Manchester,69201,53.397888,-2.353017
SOFTWARE FOR NUMBERS LIMITED,09204146,239 Bury New Road,Manchester,M45 8QP,69201,Manchester,69201,53.552714,-2.297128
TJ UK ACCOUNTING LTD,12602729,Unit 5 Egerton Street,Manchester,M43 7EL,69201,Manchester,69201,53.481387,-2.143232
FINATEC LTD,15744698,Bartle House,Manchester,M2 3WQ,"69201, 69202",Manchester,69201,53.476469,-2.243906
ASSURED CONTRACTING GROUP LTD,16750776,35 Highbury Avenue,Manchester,M44 6BU,69201,Manchester,69201,53.444137,-2.41874
PEMBROKE ACCOUNTING SERVICES LIMITED,14149238,34 Chedworth Drive,Manchester,M23 1LW,"68320, 69201",Manchester,69201,53.394173,-2.275858
GDMW FILM AND TV LTD,14330795,5 Yarningdale Avenue,Manchester,M28 3UT,"59113, 69201, 69202",Manchester,69201,53.516402,-2.409378
ELDORA CONSULTING LIMITED,07368157,Initial Business Centre,Manchester,M40 8WN,69201,Manchester,69201,53.499615,-2.205552
EHBS ACCOUNTANCY LTD,16271427,"Room 2, 6 Barlow Moor Road",Manchester,M20 6TR,"69201, 69202, 69203, 70221",Manchester,69201,53.418585,-2.233735
PROBOOKS ASSOCIATES LTD,14791350,13 Cedar Grove,Manchester,M34 2BD,69201,Manchester,69201,53.453174,-2.117582
AMS ACCOUNTING MEDICAL LIMITED,09021051,1 Hardman Street,Manchester,M3 3HF,69201,Manchester,69201,53.47988,-2.250781
SHAFIQ & CO (MANCHESTER) LIMITED,10463428,400 Cheetham Hill Road,Manchester,M8 9LE,69201,Manchester,69201,53.509288,-2.242661
MNS ACCOUNTANCY LTD,16834510,599 Burnage Lane,Manchester,M19 1WB,69201,Manchester,69201,53.421425,-2.210035
FRWRD ACCOUNTING & ADVICE LTD,14423749,Bartle House,Manchester,M2 3WQ,69201,Manchester,69201,53.476469,-2.243906
BUSINESSWISE ACCOUNTANTS LTD.,12964146,01 Riverdale Road,Manchester,M9 8GD,69201,Manchester,69201,53.528874,-2.233753
CONCORD CONSULTATIONS LTD,16267686,43 High Street,Oldham,OL3 6HS,"69201, 70229",Manchester,69201,53.547179,-2.007022
OLIVER HILTON CONSULTING LIMITED,16928522,Mansion House,Altrincham,WA14 4RW,"69201, 74909",Manchester,69201,53.397888,-2.353017
FSBI ACCOUNTANTS UK LIMITED,15362264,59 Coronation Road,Manchester,M26 3RA,"69201, 69202",Manchester,69201,53.565386,-2.341425
AK FINANCIAL SOLUTIONS LTD,16933576,8 Westminster Avenue,Manchester,M16 0AN,69201,Manchester,69201,53.447348,-2.268659
AAA STAR BRAND LTD,16919422,34 Woodbridge Avenue,Manchester,M34 5LL,"46420, 49320, 56102, 69201",Manchester,69201,53.472425,-2.120258
AJ ACC LIMITED,16994675,11 East Central Drive,Manchester,M27 4FE,"69201, 69202, 69203",Manchester,69201,53.507663,-2.322325
SOUGHT-OUT CONSULTING LTD,17017643,55 Aston Avenue,Manchester,M14 7HL,69201,Manchester,69201,53.447398,-2.240774
ACS PAYROLL LIMITED,15989873,291 Heywood Road,Prestwich,M25 2RQ,"64999, 69201, 69202",Manchester,69201,53.542598,-2.268702
PDM FINANCIAL LTD,17027471,10 Welbeck Road,Manchester,M30 9EH,69201,Manchester,69201,53.494628,-2.342123
UK TAXSHOP ACCOUNTANTS LTD,16831857,5 Tyldesley Road,Manchester,M46 9DA,"69201, 69202",Manchester,69201,53.523246,-2.489689
BUDGETAX LIMITED,15666153,"20 Swan Street,",Manchester,M4 5JW,"69201, 69203, 70229",Manchester,69201,53.485461,-2.233302
VTAX ACCOUNTANTS LTD,08531453,882 Stockport Road,Manchester,M19 3BN,"69201, 69202",Manchester,69201,53.445554,-2.191801
STP CONSULTING LIMITED,17059047,Apartment 26 Block C 137 Velveteen Crescent,Manchester,M28 3ZY,"69201, 70221, 70229",Manchester,69201,53.535806,-2.393723
ZDH ACCOUNTANTS LTD,15864025,68 Venture Scout Way,Manchester,M8 8SY,"69201, 69202, 69203",Manchester,69201,53.500893,-2.247181
BLATCH CONSULTING LIMITED,06758099,70 St. Werburghs Road,Manchester,M21 0TJ,"69201, 70229",Manchester,69201,53.444608,-2.267754
KITOS CONSULTING LIMITED,16938133,37 Haig Road,Manchester,M32 0DS,"69201, 69202, 70221, 82990",Manchester,69201,53.453056,-2.305709
HASHRAZ LIMITED,16859789,166a Manchester Road East,Manchester,M38 9LG,"69201, 69202, 69203",Manchester,69201,53.52727,-2.41176
LEDGERPRO SERVICES LTD,15412702,93-95 Heywood Road,Manchester,M25 1FN,"69201, 69202, 70229",Manchester,69201,53.529767,-2.274444
RED BRIDGE ACCOUNTING LTD,16872489,Apartment 313 6 Oldham Road,Manchester,M4 5DB,"69201, 85600",Manchester,69201,53.485068,-2.231869
M46 LTD,16881593,468 Tyldesley Road,Manchester,M46 9AT,"69201, 96020",Manchester,69201,53.516273,-2.475991
ROSH & CO ACCOUNTANTS LTD,16882662,2 Macfarren Street,Manchester,M12 4WX,69201,Manchester,69201,53.454752,-2.195939
FZEE CONSULTANTS LTD,16785398,"57-63 Lava House, 2nd Floor",Manchester,M4 4FS,"69201, 69202, 69203, 70229",Manchester,69201,53.491881,-2.240949
DIGITAL HQ LIMITED,14447645,Lord House,Manchester,M3 1HE,69201,Manchester,69201,53.491834,-2.241989
OCTOPUS FOSTERING LIMITED,13792610,Office 23 Hewitt Business Park,Wigan,WN5 7XA,69201,Manchester,69201,53.528292,-2.704685
OPARITY LIMITED,16965343,Piccadilly Business Centre Unit C Aldow Enterprise Park,Manchester,M12 6AE,69201,Manchester,69201,53.47621,-2.219903
FIGURED ACCOUNTING LTD,13266418,Bartle House,Manchester,M2 3WQ,"69201, 69202",Manchester,69201,53.476469,-2.243906
VERTEX ACCOUNTANCY SERVICES LTD,16981314,241a Bury Old Road,Manchester,M25 1JE,"69201, 69202, 69203",Manchester,69201,53.530954,-2.26641
SHARPS ACCOUNTANTS LTD,16106188,"Office 71, 792 Wilmslow Road,",Manchester,M20 6UG,69201,Manchester,69201,53.41464,-2.232856
HOURICAN OPERATIONS LTD,14374566,Suite 16 792 Wilmslow Road,Manchester,M20 6UG,"69201, 69202, 69203",Manchester,69201,53.41464,-2.232856
ELEVARE ADVISORY & CERTIFIED ACCOUNTANTS LIMITED,16987653,Bartle House,Manchester,M2 3WQ,69201,Manchester,69201,53.476469,-2.243906
HMST LTD,16139567,"Oakland House, 2nd Floor, Office 204 76 Talbot Road",Manchester,M16 0PQ,69201,Manchester,69201,53.460203,-2.283606
SEFTON YODAIKEN & CO LTD,06865601,5 Mildred Avenue,Manchester,M25 0LR,69201,Manchester,69201,53.518366,-2.268367
MEADES UMBRELLA LIMITED,12357160,First Floor Swan Buildings,Manchester,M4 5JW,"43999, 69201, 78200",Manchester,69201,53.485461,-2.233302
HMRS ACCOUNTANCY SERVICES LIMITED,08174778,8 Millfiled Drive,Manchester,M28 1LD,"68209, 69201, 69203",Manchester,69201,53.503073,-2.414617
SUMMED UP ACCOUNTANCY SERVICES LIMITED,11568766,"First Floor, Swan Buildings",Manchester,M4 5JW,69201,Manchester,69201,53.485461,-2.233302
AMC ACCOUNTANTS LTD,11517735,147b Cheetham Hill Road,Manchester,M8 8LY,"69201, 69202, 69203",Manchester,69201,53.494913,-2.239459
ACCRION ACCOUNTANTS LTD,17121589,Atrium House,Bury,BL9 9SW,"69201, 69202, 82990",Manchester,69201,53.570614,-2.295321
CENTRA ACCOUNTING LTD,13947981,46 Ruskin Road,Manchester,M25 9GL,69201,Manchester,69201,53.526727,-2.294412
NEW MILLENNIA BUREAU AND BACK OFFICE LIMITED,12325430,3rd Floor Eastgate,Castlefield,M3 4LZ,"69201, 69202",Manchester,69201,53.474461,-2.254742
A.R.S. ASSOCIATES LTD,08189217,12 Kingsway,Manchester,M19 2DD,69201,Manchester,69201,53.44429,-2.20107
AH&CO ACCOUNTANT LIMITED,12895783,Atrium House,Bury,BL9 9SW,"69201, 69202",Manchester,69201,53.570614,-2.295321
MAP ACCOUNTANTS LTD,09186951,16 Blackfriars Street,Manchester,M3 5BQ,69201,Manchester,69201,53.484216,-2.248697
RTRSUPPORTS LIMITED,10316152,Fernhills Business Centre Foerster Chambers,Bury,BL9 5BJ,"62090, 69201, 82990",Manchester,69201,53.600817,-2.294639
TAXEDIFY LTD,13408845,19 Cheetham Hill Road,Manchester,M4 4FY,"69201, 69202, 96090",Manchester,69201,53.490225,-2.241964
TAX BY STERLING LTD,12171736,"Sterling Enterprise Centre, 322 Manchester Road",Sheffield,S36 9NR,"69201, 69202, 69203, 70221",Manchester,69201,53.525263,-1.667735
TRINITY SOUTH LIMITED,07443152,Apartment 26 Brook House,Manchester,M15 4QS,69201,Manchester,69201,53.471005,-2.265026
CHEETHAM HILL ACCOUNTING SOLUTIONS LIMITED,12203279,First Floor,Manchester,M8 9JE,"69201, 69202, 69203",Manchester,69201,53.51154,-2.245027
BUSINESS ASSIST ACCOUNTANTS LTD.,13416235,07 St. James's Square,Manchester,M2 6DN,"69201, 69203",Manchester,69201,53.4806,-2.245782
H ACCOUNTANCY LTD,06588709,Clemency Business Centre,Manchester,M40 0JB,69201,Manchester,69201,53.523895,-2.169831
LEONARD CURTIS (UK) LIMITED,04200476,Riverside House,Manchester,M3 5EN,69201,Manchester,69201,53.480686,-2.256406
FAWZ SOLUTIONS LIMITED,12010910,32 Lytham Road,Manchester,M19 2AS,69201,Manchester,69201,53.445756,-2.200414
PROBIZ ACCOUNTANTS LTD,12807924,526a Liverpool Road,Manchester,M30 7JA,69201,Manchester,69201,53.477871,-2.366969
DANYIAL & CO ACCOUNTANTS LTD,12157671,37 Cuthbert Avenue,Manchester,M19 3DG,"69201, 69203",Manchester,69201,53.448787,-2.187765
CHAMPION TLL LIMITED,13419524,1 Worsley Court High Street,Manchester,M28 3NJ,69201,Manchester,69201,53.524208,-2.400162
"PARSONS, ROYLE & CO. LIMITED",03740874,Capital House 2 Market Street,Manchester,M46 0DN,69201,Manchester,69201,53.523502,-2.490944
REGUNIVERSE LTD,14862119,152 Manchester Road,Manchester,M29 8DN,"69201, 69203, 70229, 82990",Manchester,69201,53.514049,-2.456241
C J ROBERTS & PARTNERS LIMITED,06531380,160 Elliott Street,Manchester,M29 8DS,69201,Manchester,69201,53.513934,-2.464971
ATHENA CONSULTANCY GROUP LTD,14298929,29 Lees Hall Crescent,Manchester,M14 6XZ,"69201, 69202, 70229",Manchester,69201,53.439985,-2.215697
WEZMA HOTEL LIMITED,13666939,90 Atwood Road,Manchester,M20 6JN,69201,Manchester,69201,53.417107,-2.221599
PREMIER ACCOUNTS & CONSULTANCY LIMITED,04944914,76 Gloucester Road,Manchester,M41 9AE,69201,Manchester,69201,53.44663,-2.351132
VERITAS ACCOUNTANTS & ADVISORY LIMITED,08857016,The Lexicon,Manchester,M2 5NT,"69201, 70229",Manchester,69201,53.478083,-2.245708
VERITAS MEDICAL ACCOUNTANTS LIMITED,12247824,The Lexicon,Manchester,M2 5NT,69201,Manchester,69201,53.478083,-2.245708
DHD & CO ACCOUNTANTS LTD,05488427,651a Mauldeth Road West,Manchester,M21 7SA,"69201, 69203",Manchester,69201,53.432741,-2.268613
ANG ACCOUNTANTS LIMITED,14944177,42 Glastonbury Road,Manchester,M32 9PE,"69201, 69203",Manchester,69201,53.455043,-2.332378
BONNY FINLEY ACCOUNTANCY SERVICES LIMITED,12624486,"48, Cariocca Business Park Hellidon Close",Manchester,M12 4AH,69201,Manchester,69201,53.468692,-2.217364
COPA TAX LTD,15243568,Gateway House,Manchester,M22 5WY,69201,Manchester,69201,53.364776,-2.240352
A&T FINTECH LTD,15227489,189 Great Western Street,Manchester,M14 4LN,"69201, 69202",Manchester,69201,53.456402,-2.237617
SIMPSON BURGESS NASH LIMITED,04441701,Empress Business Centre,Manchester,M16 9EA,"69201, 69202, 69203",Manchester,69201,53.46619,-2.267618
SHAFIQ & CO. LIMITED,05413519,400 Cheetham Hill Road,Lancs,M8 9LE,69201,Manchester,69201,53.509288,-2.242661
QADEER AND DAUGHTERS LTD,12594423,322 Slade Lane Levenshulme,Manchester,M19 2BY,"69201, 69202, 69203",Manchester,69201,53.443753,-2.199577
NEXUS ACCOUNTANCY LIMITED,09613826,5 Holker Close,Manchester,M13 0DE,69201,Manchester,69201,53.461038,-2.214749
NTF FINANCIAL SOLUTIONS LIMITED,06619172,2nd Floor Aus-Bore House,Wilmslow,SK9 1BQ,"69109, 69201",Manchester,69201,53.328215,-2.228871
GL ACCOUNTING AND CONSULTING LIMITED,09246932,2 Lothian Avenue,Manchester,M30 8GR,69201,Manchester,69201,53.48787,-2.368774
N K ROY & CO LTD,09502322,139 Wilbraham Road,Manchester,M14 7DS,69201,Manchester,69201,53.443448,-2.233932
MIDDLETON ACCOUNTANCY SERVICES LIMITED,04260616,211 Manchester New Road,Manchester,M24 1JT,69201,Manchester,69201,53.539863,-2.201402
WM ASSOCIATES SINCE 2006 LIMITED,14027084,Flat 2 48 Lansdowne Road,Manchester,M8 5SH,69201,Manchester,69201,53.515708,-2.237133
ALYAAN FINANCE SOLUTIONS LTD,12738136,8 Green End Road,Manchester,M19 1LJ,"69201, 69202, 69203",Manchester,69201,53.426883,-2.208918
MMR ACCOUNTANTS LTD,11461921,57 Cheetham Hill Road,Manchester,M4 4FS,69201,Manchester,69201,53.491881,-2.240949
MICHAEL CHUNG & CO LTD,06135230,81a Great Stone Road,Manchester,M32 8GR,69201,Manchester,69201,53.45314,-2.28645
WILLIAMSON CROFT MIDCO DPL LIMITED,09422140,Williamson & Croft York House,Manchester,M2 3BB,69201,Manchester,69201,53.480511,-2.240704
GORDON LEVY LIMITED,06397493,"Suite 5, 4th Floor 3 Universal Square",Manchester,M12 6JH,"69201, 69202, 69203",Manchester,69201,53.470728,-2.214271
WILLIAMSON CROFT MIDCO DMM LIMITED,10675907,C/O Williamson & Croft York House,Manchester,M2 3BB,69201,Manchester,69201,53.480511,-2.240704
PHILIP MARTIN LIMITED,04917602,"Crown House, 4 High Street",Manchester,M29 8AL,69201,Manchester,69201,53.514626,-2.469684
E & M ACCOUNTANCY LIMITED,06719309,Mayfair House,Manchester,M20 6PL,69201,Manchester,69201,53.416181,-2.231164
MILESTONE ACCOUNTANTS LTD,11631034,18a Gawsworth Avenue,Manchester,M20 5NF,69201,Manchester,69201,53.407531,-2.223656
SEDULO AUDIT LIMITED,11122484,62 66 Deansgate,Manchester,M3 2EN,69201,Manchester,69201,53.483016,-2.246821
MEC BUSINESS SOLUTIONS LTD,12238930,Flat 504 83 High Street,Manchester,M4 1BE,"69201, 70221",Manchester,69201,53.485112,-2.236842
SEDULO LEEDS LIMITED,11075345,62 - 66 Deansgate,Manchester,M3 2EN,69201,Manchester,69201,53.483016,-2.246821
SEDULO TRANSACTION SERVICES LIMITED,12273864,62 66 Deansgate,Manchester,M3 2EN,69201,Manchester,69201,53.483016,-2.246821
SEDULO ACCOUNTANTS LIMITED,06877348,62 - 66 Deansgate,Manchester,M3 2EN,69201,Manchester,69201,53.483016,-2.246821
HTC ACCOUNTING LTD,15870694,17 Bridle Fold,Manchester,M26 4EQ,69201,Manchester,69201,53.567148,-2.328273
BURGESS SIMPSON NASH LTD,08640098,Empress Business Centre,Manchester,M16 9EA,69201,Manchester,69201,53.46619,-2.267618
AOF SERVICES LIMITED,10131014,Mansion House,Altrincham,WA14 4RW,69201,Manchester,69201,53.397888,-2.353017
COMPLY360 LTD,15019432,"Unit 1, 2 Manchester Road",Wilmslow,SK9 1BG,"69201, 70229",Manchester,69201,53.328306,-2.228331
JACESSI LIMITED,08015149,"The Offices, 161 Manchester Road",Accrington,BB5 2NY,69201,Manchester,69201,53.744356,-2.354809
CLEARCUT OUTSOURCING LTD,14174927,Parkway 5 Parkway Business Centre,Manchester,M14 7HR,"58110, 69201, 69203",Manchester,69201,53.44852,-2.245915
NOTNA CONSULTING LTD,15811375,Flat 41 Pierhead Lock,London,E14 3FD,69201,Manchester,69201,51.500211,-0.008521
FINOVATIVE LIMITED,15812788,7 Braeside Grove,Bolton,BL3 4TY,"69201, 69202, 69203, 82990",Manchester,69201,53.56857,-2.477332
LONGDEN & CO. LTD,06710813,The Riverside,Stalybridge,SK15 2JE,69201,Manchester,69201,53.482916,-2.057585
EXPERT ACCOUNTANCY SERVICES LTD,14907246,"Bartle House, Oxford Court Bartle House",Manchester,M2 3WQ,69201,Manchester,69201,53.476469,-2.243906
CHITTENDENS LIMITED,04687172,435 Chester Road,Manchester,M16 9HA,69201,Manchester,69201,53.465156,-2.267897
ABRAM & CO. LTD,10959070,62 Beresford Road,Manchester,M13 0QT,"69201, 69202, 69203",Manchester,69201,53.452698,-2.203639
CASCADE ACCOUNTING SOLUTIONS LIMITED,08470137,19 Ludlow Avenue,Whitefield,M45 6TD,"69201, 69202",Manchester,69201,53.540039,-2.279264
ALLEN MILLS HOWARD LIMITED,04487142,56 Manchester Road,Altrincham,WA14 4PJ,69201,Manchester,69201,53.394997,-2.35188
TOP TAX PARTNERS LIMITED,10713711,"Unit 3f, 3rd Floor Wing Yip Business Centre",Manchester,M4 5HU,69201,Manchester,69201,53.486736,-2.22906
ZAK ACCOUNTANCY LTD,11561509,1041 Stockport Road,Manchester,M19 2TF,"69201, 69202, 69203",Manchester,69201,53.438884,-2.186307
AKRAM FORTIS LTD,11046541,66 Seymour Grove,Manchester,M16 0LN,"69201, 69202, 69203",Manchester,69201,53.459403,-2.27607
R V ACCOUNTANTS LIMITED,04967888,40 York Road,Manchester,M34 3HL,"69201, 69203",Manchester,69201,53.459337,-2.111289
ASB FINANCIAL CONSULTING LIMITED,10892460,211 Manchester Road,Heywood,OL10 2NN,69201,Manchester,69201,53.581431,-2.213215
FFT PAYROLL LIMITED,04510181,Freedman Frankl & Taylor Reedham House,Manchester,M3 2PJ,69201,Manchester,69201,53.48185,-2.249828
FOX ACCOUNTANCY SERVICES (MANCHESTER) LIMITED,08186135,238 Block Lane,Oldham,OL9 7QB,69201,Manchester,69201,53.532193,-2.140974
KAFZAN CONSULTING LIMITED,08794475,38 Barnhill Road,Manchester,M25 9NH,69201,Manchester,69201,53.523839,-2.28056
THOMAS & CO INTERNATIONAL LIMITED,13474030,Cubo No.1 Spinningfields,Manchester,M3 3EB,"69201, 69202",Manchester,69201,53.479607,-2.252211
NMR ACCOUNTANTS LTD,11462409,412 Stretford Road,Manchester,M15 4AE,"69201, 69202, 69203",Manchester,69201,53.46557,-2.25954
RAO CONSULTING LIMITED,14084957,15 Seacombe Avenue,Manchester,M14 7AN,"69201, 69202, 69203, 78300",Manchester,69201,53.445512,-2.235283
GOLDENRUSH LIMITED,11326628,Mansion House,Altrincham,WA14 4RW,"62020, 69201, 74909",Manchester,69201,53.397888,-2.353017
PAM ACCOUNTANTS & CONSULTANTS LTD,11496469,69 Guildford Road,Manchester,M19 3ER,"69201, 69202, 70229",Manchester,69201,53.449427,-2.181188
TAX REFUNDS MADE SIMPLE LIMITED,10327727,151b Bury New Road,Manchester,M45 6AA,"69201, 69202, 69203",Manchester,69201,53.5455,-2.291961
GHANI & CO ACCOUNTANTS LTD,10657814,10 Grandale Street,Manchester,M14 5WG,69201,Manchester,69201,53.453575,-2.226096
LANG ACC LTD,12303892,"2nd Floor, Parkgates Bury New Road",Manchester,M25 0TL,69201,Manchester,69201,53.520478,-2.272468
COGNITION ACCOUNTANCY LIMITED,10347194,International House,Manchester,M2 3HZ,"69201, 69202, 69203, 70221",Manchester,69201,53.479531,-2.240789
RAK ACCOUNTING SOLUTIONS LIMITED,07972188,11 Louvaine Close,Manchester,M18 8SJ,69201,Manchester,69201,53.465003,-2.162728
SR CONSULTANTS LTD,08552005,Emery House,Manchester,M20 6FJ,69201,Manchester,69201,53.421484,-2.217048
LAWRENCE WILLIAM ASSOCIATES LTD,04573168,Northern Assurance Buildings,Manchester,M2 4DN,69201,Manchester,69201,53.480126,-2.244484
PARETO TAX & WEALTH (COMPLIANCE) LIMITED,07254128,The Old Schoolhouse,Manchester,M3 4PF,69201,Manchester,69201,53.478206,-2.251856
STRATHMORE AUDIT LIMITED,06364303,"3rd Floor, Ivy Mill Crown Street",Manchester,M35 9BG,69201,Manchester,69201,53.512065,-2.157299
AM ROYSTON LTD,10426847,First Floor,Manchester,M8 9HZ,"69201, 69202, 69203",Manchester,69201,53.510714,-2.244509
RIGHT ACCOUNTING SERVICES LTD,14548074,386b Barlow Moor Road,Manchester,M21 8BH,69201,Manchester,69201,53.441094,-2.27556
RPG GROUP LIMITED,09480860,The Copper Room Deva City Office Park,Manchester,M3 7BG,69201,Manchester,69201,53.484305,-2.253504
ALEXANDER & CO ACCOUNTANTS LTD,14268428,104 Broughton Lane,Manchester,M7 1UF,"69201, 69202",Manchester,69201,53.496558,-2.261129
ACHEL GROUP LTD,13472936,"1st Floor Cardinal House, 20 St. Marys Parsonage 1st Floor Cardinal House",Manchester,M3 2LY,"64205, 69201, 69202, 69203",Manchester,69201,53.482551,-2.249636
Y&N ACCOUNTS LTD,12225013,1 St Marks Lane,Manchester,M8 9GH,"69201, 69202",Manchester,69201,53.509997,-2.247671
MSJ CCA LIMITED,05541164,61 Grangethorpe Drive,Manchester,M19 2NF,"69201, 69202, 69203, 82990",Manchester,69201,53.436256,-2.205322
PROPLEXO LIMITED,15522252,"Proplexo House, Unit 118",Greater Manchester,WA3 3GR,69201,Manchester,69201,53.479367,-2.597477
H. STONE & CO LIMITED,04066129,Bushbury House 435 Wilmslow Road,Manchester,M20 2AF,69201,Manchester,69201,53.425952,-2.253295
CLOUD TAX SOLUTIONS LTD,11724291,151b Bury New Road,Manchester,M45 6AA,"69201, 69203",Manchester,69201,53.5455,-2.291961
DAVID POSTLETHWAITE COSTINGS LIMITED,07488219,Flat 1 Sir Matt Busby Way Old Trafford,Manchester,M16 0QG,69201,Manchester,69201,53.461827,-2.288632
PARTINGTONS TRANSPORT CONSULTANTS LTD,13077193,9 Heathfield Drive,Manchester,M27 5LH,"69201, 70229",Manchester,69201,53.505936,-2.326006
RAHMAN ACCOUNTANTS LIMITED,11345802,13 Cotswold Drive,Oldham,OL2 5HD,69201,Manchester,69201,53.560573,-2.137188
EAG CONSULTING LTD,14702469,4 Gleneagles Road,Manchester,M41 8SE,69201,Manchester,69201,53.456434,-2.386844
HAYTCH ACCOUNTANTS LTD,12503532,Piccadilly Business Centre,Manchester,M12 6AE,69201,Manchester,69201,53.47621,-2.219903
VATORAMA LTD,06775893,29 Overbridge Road,Manchester,M7 1SL,"69201, 69202",Manchester,69201,53.492764,-2.252786
FINANCIAL R&R CONSULTING LTD,15970084,33 White Moss Avenue,Manchester,M21 0XS,"69201, 70221",Manchester,69201,53.442108,-2.264215
MSK ACCOUNTANCY LTD,11582154,14 Poplar Road,Manchester,M19 1QH,69201,Manchester,69201,53.419366,-2.215622
A.S. BAYNARD LTD,09366817,84 Dingle Close,Manchester,M26 1UN,"69201, 69202",Manchester,69201,53.551764,-2.320304
ADAM & CO ACCOUNTANTS LIMITED,06474977,251 Derby Street,Bolton,BL3 6LA,69201,Manchester,69201,53.568404,-2.440925
TCHEUMO SERVICES LTD,10824970,Unit 37 Longsight Business Park,Manchester,M13 0PD,"69201, 70221",Manchester,69201,53.455408,-2.200942
IB BUSINESS LIMITED,13505500,10 Mulberry Walk,Manchester,M43 6QH,"69201, 69202, 82110, 96090",Manchester,69201,53.477401,-2.161208
MELDON LLOYD ACCOUNTANTS LTD,14433831,Unit 49 Hellidon Close,Manchester,M12 4AH,"69201, 69202, 69203, 70221",Manchester,69201,53.468692,-2.217364
REDSTONE ACCOUNTANCY LIMITED,11852877,C/O Redstone Accountancy 253 Monton Road,Manchester,M30 9PS,69201,Manchester,69201,53.491594,-2.353191
GO ACCOUNTING AND BUSINESS LTD,10452056,3 Crompton Street,Bury,BL9 0AD,"69201, 69202",Manchester,69201,53.593289,-2.29634
SHEPHERD & COLEMAN LTD,11032773,317 Dickenson Road,Manchester,M13 0NR,69201,Manchester,69201,53.455727,-2.203895
TT TURNER LIMITED,05189190,"21 Greenbank Road, Marple Bridge",Greater Manchester,SK6 5ED,"49410, 69201, 69202, 69203",Manchester,69201,53.407874,-2.051511
ACCOUNTING & TAX SOLUTIONS MCR LTD,13060196,10 Milton Road,Manchester,M32 0RD,"69201, 70229",Manchester,69201,53.453976,-2.297343
NESTOR ACCOUNTANCY SERVICES LIMITED,06456195,C/O Topping Partnership Incom House,Trafford Park,M17 1WD,69201,Manchester,69201,53.466642,-2.293319
